{"meta": {"schema": "earth.pointset.v1", "kind": "berkeley-vcm-offset", "source": "Berkeley Carbon Trading Project — Voluntary Registry Offsets Database", "attribution": "Carbon-offset projects from the Berkeley Carbon Trading Project, Voluntary Registry Offsets Database (v2026-04). CC BY 4.0 — citation required. Only projects with issued/retired credits are shown.", "license": "CC BY 4.0", "label": "Carbon-offset projects (Berkeley VCM registry)", "disclosure": "Real registry projects (issued/retired credits). Locations are EXACT for 3,276 projects cross-referenced to a registry/MSCI coordinate source; the remainder are APPROXIMATE — placed by registry-reported country/region (no precise coordinate in the database), then scattered for legibility.", "palette": "aqi", "domain": "land", "vintage": "v2026-04", "isLive": false, "liveReady": true, "count": 5934}, "points": [{"lat": 40.0682, "lon": -80.6488, "value": 88.9, "label": "Air Bag Gas Substitution — 7,984k issued / 18k retired · SF6 Replacement · United States", "name": "Air Bag Gas Substitution", "description": "SF6 Replacement", "url": "https://gspp.berkeley.edu/berkeley-carbon-trading-project/offsets-database"}, {"lat": 38.4937, "lon": -78.434, "value": 59.8, "label": "Inland Empire Anaerobic Ag Digester — 44k issued / 29k retired · Manure Methane Digester · United States", "name": "Inland Empire Anaerobic Ag Digester", "description": "Manure Methane Digester", "url": "https://gspp.berkeley.edu/berkeley-carbon-trading-project/offsets-database"}, {"lat": -21.9005, "lon": -43.7003, "value": 82.5, "label": "Boa Vista A/R — 2,572k issued / 2,572k retired · Afforestation/Reforestation · Brazil", "name": "Boa Vista A/R", "description": "Afforestation/Reforestation", "url": "https://gspp.berkeley.edu/berkeley-carbon-trading-project/offsets-database"}, {"lat": 38.7935, "lon": -80.308, "value": 66.2, "label": "Brickyard LFG to Energy — 138k issued / 109k retired · Landfill Methane · United States", "name": "Brickyard LFG to Energy", "description": "Landfill Methane", "url": "https://gspp.berkeley.edu/berkeley-carbon-trading-project/offsets-database"}, {"lat": -19.2017, "lon": -63.7045, "value": 39.4, "label": "Camargo Fuel Substitution — 1k issued / 0k retired · Fuel Switching · Bolivia", "name": "Camargo Fuel Substitution", "description": "Fuel Switching", "url": "https://gspp.berkeley.edu/berkeley-carbon-trading-project/offsets-database"}, {"lat": 39.8169, "lon": -75.1017, "value": 73.8, "label": "Chesapeake Mizer Pneumatic Retrofit — 542k issued / 200k retired · Pneumatic Retrofit · United States", "name": "Chesapeake Mizer Pneumatic Retrofit", "description": "Pneumatic Retrofit", "url": "https://gspp.berkeley.edu/berkeley-carbon-trading-project/offsets-database"}, {"lat": 39.7672, "lon": -79.679, "value": 61.7, "label": "Chicago LFG to Energy — 62k issued / 52k retired · Landfill Methane · United States", "name": "Chicago LFG to Energy", "description": "Landfill Methane", "url": "https://gspp.berkeley.edu/berkeley-carbon-trading-project/offsets-database"}, {"lat": 40.4666, "lon": -73.7973, "value": 48.4, "label": "Devon Mizer Pneumatic Retrofit — 6k issued / 0k retired · Pneumatic Retrofit · United States", "name": "Devon Mizer Pneumatic Retrofit", "description": "Pneumatic Retrofit", "url": "https://gspp.berkeley.edu/berkeley-carbon-trading-project/offsets-database"}, {"lat": 37.6468, "lon": -74.7929, "value": 67.0, "label": "Dolton LFG to Energy — 159k issued / 145k retired · Landfill Methane · United States", "name": "Dolton LFG to Energy", "description": "Landfill Methane", "url": "https://gspp.berkeley.edu/berkeley-carbon-trading-project/offsets-database"}, {"lat": 38.4651, "lon": -79.6184, "value": 75.4, "label": "Greater New Bedford LFG — 713k issued / 206k retired · Landfill Methane · United States", "name": "Greater New Bedford LFG", "description": "Landfill Methane", "url": "https://gspp.berkeley.edu/berkeley-carbon-trading-project/offsets-database"}, {"lat": 39.88, "lon": -101.52, "value": 88.7, "label": "GreenTrees ACRE (Advanced Carbon Restored Ecosystem) — 7,790k issued / 4,375k retired · Afforestation/Reforestation · United States", "name": "GreenTrees ACRE (Advanced Carbon Restored Ecosystem)", "description": "Afforestation/Reforestation", "url": "https://gspp.berkeley.edu/berkeley-carbon-trading-project/offsets-database"}, {"lat": 37.975, "lon": -79.8931, "value": 53.1, "label": "Lower Mississippi Valley Reforestation — 13k issued / 0k retired · Afforestation/Reforestation · United States", "name": "Lower Mississippi Valley Reforestation", "description": "Afforestation/Reforestation", "url": "https://gspp.berkeley.edu/berkeley-carbon-trading-project/offsets-database"}, {"lat": 40.0003, "lon": -80.2392, "value": 88.4, "label": "Merit Energy Geo-Seq — 7,309k issued / 3,492k retired · Carbon Capture & Enhanced Oil Recovery · United States", "name": "Merit Energy Geo-Seq", "description": "Carbon Capture & Enhanced Oil Recovery", "url": "https://gspp.berkeley.edu/berkeley-carbon-trading-project/offsets-database"}, {"lat": 39.0707, "lon": -78.4317, "value": 80.4, "label": "Monell Geo-Seq — 1,748k issued / 884k retired · Carbon Capture & Enhanced Oil Recovery · United States", "name": "Monell Geo-Seq", "description": "Carbon Capture & Enhanced Oil Recovery", "url": "https://gspp.berkeley.edu/berkeley-carbon-trading-project/offsets-database"}, {"lat": 37.0116, "lon": -78.9925, "value": 79.9, "label": "North Country LFG — 1,592k issued / 363k retired · Landfill Methane · United States", "name": "North Country LFG", "description": "Landfill Methane", "url": "https://gspp.berkeley.edu/berkeley-carbon-trading-project/offsets-database"}, {"lat": 37.0855, "lon": -74.9213, "value": 81.6, "label": "Petrosource Geo-Seq — 2,181k issued / 2,142k retired · Carbon Capture & Enhanced Oil Recovery · United States", "name": "Petrosource Geo-Seq", "description": "Carbon Capture & Enhanced Oil Recovery", "url": "https://gspp.berkeley.edu/berkeley-carbon-trading-project/offsets-database"}, {"lat": 41.2434, "lon": -79.4307, "value": 83.1, "label": "Pike's Peak Geo-Seq — 2,867k issued / 2,080k retired · Carbon Capture & Enhanced Oil Recovery · United States", "name": "Pike's Peak Geo-Seq", "description": "Carbon Capture & Enhanced Oil Recovery", "url": "https://gspp.berkeley.edu/berkeley-carbon-trading-project/offsets-database"}, {"lat": 37.4626, "lon": -76.484, "value": 60.8, "label": "Romeoville LFG to Energy — 52k issued / 52k retired · Landfill Methane · United States", "name": "Romeoville LFG to Energy", "description": "Landfill Methane", "url": "https://gspp.berkeley.edu/berkeley-carbon-trading-project/offsets-database"}, {"lat": 37.4182, "lon": -73.7404, "value": 88.6, "label": "Salt Creek Geo-Seq — 7,675k issued / 6,391k retired · Carbon Capture & Enhanced Oil Recovery · United States", "name": "Salt Creek Geo-Seq", "description": "Carbon Capture & Enhanced Oil Recovery", "url": "https://gspp.berkeley.edu/berkeley-carbon-trading-project/offsets-database"}, {"lat": 36.2405, "lon": -78.2286, "value": 59.6, "label": "Schneider Anti-Idling — 43k issued / 18k retired · Fleet Efficiency · United States", "name": "Schneider Anti-Idling", "description": "Fleet Efficiency", "url": "https://gspp.berkeley.edu/berkeley-carbon-trading-project/offsets-database"}, {"lat": 12.36, "lon": -92.1129, "value": 28.7, "label": "SEESA Solar Electrification — 0k issued / 0k retired · Solar - Distributed · El Salvador", "name": "SEESA Solar Electrification", "description": "Solar - Distributed", "url": "https://gspp.berkeley.edu/berkeley-carbon-trading-project/offsets-database"}, {"lat": 37.4854, "lon": -78.4813, "value": 82.3, "label": "Seneca Meadows LFG — 2,471k issued / 1,771k retired · Landfill Methane · United States", "name": "Seneca Meadows LFG", "description": "Landfill Methane", "url": "https://gspp.berkeley.edu/berkeley-carbon-trading-project/offsets-database"}, {"lat": 39.3955, "lon": -73.0908, "value": 65.8, "label": "Steuben County DPW LFG — 129k issued / 109k retired · Landfill Methane · United States", "name": "Steuben County DPW LFG", "description": "Landfill Methane", "url": "https://gspp.berkeley.edu/berkeley-carbon-trading-project/offsets-database"}, {"lat": 38.3326, "lon": -73.4443, "value": 60.2, "label": "Streator LFG to Energy — 47k issued / 47k retired · Landfill Methane · United States", "name": "Streator LFG to Energy", "description": "Landfill Methane", "url": "https://gspp.berkeley.edu/berkeley-carbon-trading-project/offsets-database"}, {"lat": 11.7919, "lon": -88.4703, "value": 46.3, "label": "Tecnosol Solar Electrification — 4k issued / 0k retired · Solar - Distributed · Nicaragua", "name": "Tecnosol Solar Electrification", "description": "Solar - Distributed", "url": "https://gspp.berkeley.edu/berkeley-carbon-trading-project/offsets-database"}, {"lat": 38.5384, "lon": -75.504, "value": 50.5, "label": "Truck Stop Electrification, Alabama — 8k issued / 8k retired · Truck Stop Electrification · United States", "name": "Truck Stop Electrification, Alabama", "description": "Truck Stop Electrification", "url": "https://gspp.berkeley.edu/berkeley-carbon-trading-project/offsets-database"}, {"lat": 40.0486, "lon": -77.5708, "value": 52.1, "label": "Truck Stop Electrification, Arizona — 11k issued / 10k retired · Truck Stop Electrification · United States", "name": "Truck Stop Electrification, Arizona", "description": "Truck Stop Electrification", "url": "https://gspp.berkeley.edu/berkeley-carbon-trading-project/offsets-database"}, {"lat": 39.9482, "lon": -79.033, "value": 57.3, "label": "Truck Stop Electrification, Arkansas — 28k issued / 28k retired · Truck Stop Electrification · United States", "name": "Truck Stop Electrification, Arkansas", "description": "Truck Stop Electrification", "url": "https://gspp.berkeley.edu/berkeley-carbon-trading-project/offsets-database"}, {"lat": 36.2606, "lon": -74.9813, "value": 55.9, "label": "Truck Stop Electrification, California — 22k issued / 14k retired · Truck Stop Electrification · United States", "name": "Truck Stop Electrification, California", "description": "Truck Stop Electrification", "url": "https://gspp.berkeley.edu/berkeley-carbon-trading-project/offsets-database"}, {"lat": 41.2555, "lon": -76.9174, "value": 45.9, "label": "Truck Stop Electrification, Colorado — 4k issued / 2k retired · Truck Stop Electrification · United States", "name": "Truck Stop Electrification, Colorado", "description": "Truck Stop Electrification", "url": "https://gspp.berkeley.edu/berkeley-carbon-trading-project/offsets-database"}, {"lat": 37.7373, "lon": -75.3154, "value": 49.8, "label": "Truck Stop Electrification, Florida — 7k issued / 7k retired · Truck Stop Electrification · United States", "name": "Truck Stop Electrification, Florida", "description": "Truck Stop Electrification", "url": "https://gspp.berkeley.edu/berkeley-carbon-trading-project/offsets-database"}, {"lat": 35.7988, "lon": -77.2002, "value": 56.0, "label": "Truck Stop Electrification, Georgia — 22k issued / 22k retired · Truck Stop Electrification · United States", "name": "Truck Stop Electrification, Georgia", "description": "Truck Stop Electrification", "url": "https://gspp.berkeley.edu/berkeley-carbon-trading-project/offsets-database"}, {"lat": 39.2964, "lon": -74.8713, "value": 55.5, "label": "Truck Stop Electrification, Illinois — 21k issued / 17k retired · Truck Stop Electrification · United States", "name": "Truck Stop Electrification, Illinois", "description": "Truck Stop Electrification", "url": "https://gspp.berkeley.edu/berkeley-carbon-trading-project/offsets-database"}, {"lat": 40.3855, "lon": -73.8592, "value": 52.6, "label": "Truck Stop Electrification, Indiana — 12k issued / 12k retired · Truck Stop Electrification · United States", "name": "Truck Stop Electrification, Indiana", "description": "Truck Stop Electrification", "url": "https://gspp.berkeley.edu/berkeley-carbon-trading-project/offsets-database"}, {"lat": 41.2114, "lon": -79.2044, "value": 46.5, "label": "Truck Stop Electrification, Kentucky — 4k issued / 4k retired · Truck Stop Electrification · United States", "name": "Truck Stop Electrification, Kentucky", "description": "Truck Stop Electrification", "url": "https://gspp.berkeley.edu/berkeley-carbon-trading-project/offsets-database"}, {"lat": 37.7084, "lon": -75.106, "value": 52.3, "label": "Truck Stop Electrification, Louisianna — 12k issued / 10k retired · Truck Stop Electrification · United States", "name": "Truck Stop Electrification, Louisianna", "description": "Truck Stop Electrification", "url": "https://gspp.berkeley.edu/berkeley-carbon-trading-project/offsets-database"}, {"lat": 41.632, "lon": -77.9489, "value": 52.6, "label": "Truck Stop Electrification, Maryland — 12k issued / 12k retired · Truck Stop Electrification · United States", "name": "Truck Stop Electrification, Maryland", "description": "Truck Stop Electrification", "url": "https://gspp.berkeley.edu/berkeley-carbon-trading-project/offsets-database"}, {"lat": 38.92, "lon": -75.888, "value": 46.5, "label": "Truck Stop Electrification, Michigan — 4k issued / 4k retired · Truck Stop Electrification · United States", "name": "Truck Stop Electrification, Michigan", "description": "Truck Stop Electrification", "url": "https://gspp.berkeley.edu/berkeley-carbon-trading-project/offsets-database"}, {"lat": 41.7678, "lon": -77.6205, "value": 41.9, "label": "Truck Stop Electrification, Minnesota — 2k issued / 1k retired · Truck Stop Electrification · United States", "name": "Truck Stop Electrification, Minnesota", "description": "Truck Stop Electrification", "url": "https://gspp.berkeley.edu/berkeley-carbon-trading-project/offsets-database"}, {"lat": 37.9683, "lon": -78.2556, "value": 46.6, "label": "Truck Stop Electrification, Mississippi — 4k issued / 4k retired · Truck Stop Electrification · United States", "name": "Truck Stop Electrification, Mississippi", "description": "Truck Stop Electrification", "url": "https://gspp.berkeley.edu/berkeley-carbon-trading-project/offsets-database"}, {"lat": 40.2475, "lon": -73.4044, "value": 48.0, "label": "Truck Stop Electrification, Missouri — 5k issued / 5k retired · Truck Stop Electrification · United States", "name": "Truck Stop Electrification, Missouri", "description": "Truck Stop Electrification", "url": "https://gspp.berkeley.edu/berkeley-carbon-trading-project/offsets-database"}, {"lat": 37.5318, "lon": -74.7912, "value": 45.0, "label": "Truck Stop Electrification, Nebraska — 3k issued / 3k retired · Truck Stop Electrification · United States", "name": "Truck Stop Electrification, Nebraska", "description": "Truck Stop Electrification", "url": "https://gspp.berkeley.edu/berkeley-carbon-trading-project/offsets-database"}, {"lat": 37.9668, "lon": -75.0676, "value": 49.7, "label": "Truck Stop Electrification, New Jersey — 7k issued / 7k retired · Truck Stop Electrification · United States", "name": "Truck Stop Electrification, New Jersey", "description": "Truck Stop Electrification", "url": "https://gspp.berkeley.edu/berkeley-carbon-trading-project/offsets-database"}, {"lat": 40.2088, "lon": -75.5276, "value": 51.2, "label": "Truck Stop Electrification, New Mexico — 9k issued / 9k retired · Truck Stop Electrification · United States", "name": "Truck Stop Electrification, New Mexico", "description": "Truck Stop Electrification", "url": "https://gspp.berkeley.edu/berkeley-carbon-trading-project/offsets-database"}, {"lat": 40.2552, "lon": -79.0132, "value": 50.6, "label": "Truck Stop Electrification, North Carolina — 8k issued / 8k retired · Truck Stop Electrification · United States", "name": "Truck Stop Electrification, North Carolina", "description": "Truck Stop Electrification", "url": "https://gspp.berkeley.edu/berkeley-carbon-trading-project/offsets-database"}, {"lat": 40.3616, "lon": -74.3334, "value": 40.3, "label": "Truck Stop Electrification, North Dakota — 1k issued / 1k retired · Truck Stop Electrification · United States", "name": "Truck Stop Electrification, North Dakota", "description": "Truck Stop Electrification", "url": "https://gspp.berkeley.edu/berkeley-carbon-trading-project/offsets-database"}, {"lat": 41.2343, "lon": -76.0717, "value": 57.4, "label": "Truck Stop Electrification, Ohio — 29k issued / 24k retired · Truck Stop Electrification · United States", "name": "Truck Stop Electrification, Ohio", "description": "Truck Stop Electrification", "url": "https://gspp.berkeley.edu/berkeley-carbon-trading-project/offsets-database"}, {"lat": 39.2932, "lon": -77.9846, "value": 50.4, "label": "Truck Stop Electrification, Oklahoma — 8k issued / 8k retired · Truck Stop Electrification · United States", "name": "Truck Stop Electrification, Oklahoma", "description": "Truck Stop Electrification", "url": "https://gspp.berkeley.edu/berkeley-carbon-trading-project/offsets-database"}, {"lat": 36.682, "lon": -78.5885, "value": 48.2, "label": "Truck Stop Electrification, Oregon — 6k issued / 5k retired · Truck Stop Electrification · United States", "name": "Truck Stop Electrification, Oregon", "description": "Truck Stop Electrification", "url": "https://gspp.berkeley.edu/berkeley-carbon-trading-project/offsets-database"}, {"lat": 37.9128, "lon": -75.6485, "value": 56.6, "label": "Truck Stop Electrification, Pennsylvania — 25k issued / 22k retired · Truck Stop Electrification · United States", "name": "Truck Stop Electrification, Pennsylvania", "description": "Truck Stop Electrification", "url": "https://gspp.berkeley.edu/berkeley-carbon-trading-project/offsets-database"}, {"lat": 38.3417, "lon": -79.2416, "value": 48.0, "label": "Truck Stop Electrification, South Carolina — 5k issued / 5k retired · Truck Stop Electrification · United States", "name": "Truck Stop Electrification, South Carolina", "description": "Truck Stop Electrification", "url": "https://gspp.berkeley.edu/berkeley-carbon-trading-project/offsets-database"}, {"lat": 37.958, "lon": -78.9435, "value": 55.2, "label": "Truck Stop Electrification, Tennessee — 19k issued / 18k retired · Truck Stop Electrification · United States", "name": "Truck Stop Electrification, Tennessee", "description": "Truck Stop Electrification", "url": "https://gspp.berkeley.edu/berkeley-carbon-trading-project/offsets-database"}, {"lat": 39.354, "lon": -80.9023, "value": 63.5, "label": "Truck Stop Electrification, Texas — 86k issued / 83k retired · Truck Stop Electrification · United States", "name": "Truck Stop Electrification, Texas", "description": "Truck Stop Electrification", "url": "https://gspp.berkeley.edu/berkeley-carbon-trading-project/offsets-database"}, {"lat": 37.8186, "lon": -79.9043, "value": 45.6, "label": "Truck Stop Electrification, Utah — 3k issued / 3k retired · Truck Stop Electrification · United States", "name": "Truck Stop Electrification, Utah", "description": "Truck Stop Electrification", "url": "https://gspp.berkeley.edu/berkeley-carbon-trading-project/offsets-database"}, {"lat": 40.9059, "lon": -77.0247, "value": 43.9, "label": "Truck Stop Electrification, West Virginia — 3k issued / 2k retired · Truck Stop Electrification · United States", "name": "Truck Stop Electrification, West Virginia", "description": "Truck Stop Electrification", "url": "https://gspp.berkeley.edu/berkeley-carbon-trading-project/offsets-database"}, {"lat": 38.8393, "lon": -78.6303, "value": 64.4, "label": "Tyson Wastewater Treatment — 100k issued / 0k retired · Methane Recovery in Wastewater · United States", "name": "Tyson Wastewater Treatment", "description": "Methane Recovery in Wastewater", "url": "https://gspp.berkeley.edu/berkeley-carbon-trading-project/offsets-database"}, {"lat": 38.7315, "lon": -75.0776, "value": 67.8, "label": "Upper Rock LFG to Energy — 185k issued / 168k retired · Landfill Methane · United States", "name": "Upper Rock LFG to Energy", "description": "Landfill Methane", "url": "https://gspp.berkeley.edu/berkeley-carbon-trading-project/offsets-database"}, {"lat": 39.1298, "lon": -74.2246, "value": 72.7, "label": "International Paper — 439k issued / 2k retired · Energy Efficiency · United States", "name": "International Paper", "description": "Energy Efficiency", "url": "https://gspp.berkeley.edu/berkeley-carbon-trading-project/offsets-database"}, {"lat": 37.2273, "lon": -76.0336, "value": 65.2, "label": "Des Plaines LFG to Energy — 116k issued / 71k retired · Landfill Methane · United States", "name": "Des Plaines LFG to Energy", "description": "Landfill Methane", "url": "https://gspp.berkeley.edu/berkeley-carbon-trading-project/offsets-database"}, {"lat": 40.35, "lon": -73.4445, "value": 73.1, "label": "DANC — 477k issued / 364k retired · Landfill Methane · United States", "name": "DANC", "description": "Landfill Methane", "url": "https://gspp.berkeley.edu/berkeley-carbon-trading-project/offsets-database"}, {"lat": -23.4005, "lon": -45.3277, "value": 69.6, "label": "Malhas Menegotti Industria Textil Fuel Switch — 254k issued / 232k retired · Fuel Switching · Brazil", "name": "Malhas Menegotti Industria Textil Fuel Switch", "description": "Fuel Switching", "url": "https://gspp.berkeley.edu/berkeley-carbon-trading-project/offsets-database"}, {"lat": 36.9063, "lon": -76.9149, "value": 65.6, "label": "Nitrogen Oxide Abatement at the DuPont Sabine River Works Adipic Acid Facility — 125k issued / 0k retired · N2O Destruction in Adipic Acid Production · United States", "name": "Nitrogen Oxide Abatement at the DuPont Sabine River Works Adipic Acid Facility", "description": "N2O Destruction in Adipic Acid Production", "url": "https://gspp.berkeley.edu/berkeley-carbon-trading-project/offsets-database"}, {"lat": 39.9616, "lon": -77.5731, "value": 70.6, "label": "ECC ODS Destruction 2012 — 307k issued / 307k retired · Ozone Depleting Substances Recovery & Destruction · United States", "name": "ECC ODS Destruction 2012", "description": "Ozone Depleting Substances Recovery & Destruction", "url": "https://gspp.berkeley.edu/berkeley-carbon-trading-project/offsets-database"}, {"lat": 39.1115, "lon": -73.5674, "value": 6.1, "label": "Nitrous Oxide Reduction in Corn — 0k issued / 0k retired · Nitrogen Management · United States", "name": "Nitrous Oxide Reduction in Corn", "description": "Nitrogen Management", "url": "https://gspp.berkeley.edu/berkeley-carbon-trading-project/offsets-database"}, {"lat": 39.5167, "lon": -74.0434, "value": 61.1, "label": "EOS ARB ODS 2013-2 — 56k issued / 56k retired · Ozone Depleting Substances Recovery & Destruction · United States", "name": "EOS ARB ODS 2013-2", "description": "Ozone Depleting Substances Recovery & Destruction", "url": "https://gspp.berkeley.edu/berkeley-carbon-trading-project/offsets-database"}, {"lat": 40.4991, "lon": -80.4406, "value": 73.6, "label": "Round Valley Indian Tribes Improved Forest Management Project — 519k issued / 485k retired · Improved Forest Management · United States", "name": "Round Valley Indian Tribes Improved Forest Management Project", "description": "Improved Forest Management", "url": "https://gspp.berkeley.edu/berkeley-carbon-trading-project/offsets-database"}, {"lat": 38.1275, "lon": -76.5979, "value": 69.6, "label": "ECC ODS Destruction 2013 — 255k issued / 254k retired · Ozone Depleting Substances Recovery & Destruction · United States", "name": "ECC ODS Destruction 2013", "description": "Ozone Depleting Substances Recovery & Destruction", "url": "https://gspp.berkeley.edu/berkeley-carbon-trading-project/offsets-database"}, {"lat": -22.9581, "lon": -44.8655, "value": 75.0, "label": "Monjolinho Energética S/A Hydropower Plant Project (Alzir dos Santos Antunes) — 674k issued / 41k retired · Hydropower · Brazil", "name": "Monjolinho Energética S/A Hydropower Plant Project (Alzir dos Santos Antunes)", "description": "Hydropower", "url": "https://gspp.berkeley.edu/berkeley-carbon-trading-project/offsets-database"}, {"lat": 39.4173, "lon": -80.6736, "value": 60.6, "label": "Wabashco Clean Sweep I — 51k issued / 51k retired · Ozone Depleting Substances Recovery & Destruction · United States", "name": "Wabashco Clean Sweep I", "description": "Ozone Depleting Substances Recovery & Destruction", "url": "https://gspp.berkeley.edu/berkeley-carbon-trading-project/offsets-database"}, {"lat": 39.0078, "lon": -78.7164, "value": 60.7, "label": "EOS ARB ODS 2013-6 — 52k issued / 52k retired · Ozone Depleting Substances Recovery & Destruction · United States", "name": "EOS ARB ODS 2013-6", "description": "Ozone Depleting Substances Recovery & Destruction", "url": "https://gspp.berkeley.edu/berkeley-carbon-trading-project/offsets-database"}, {"lat": 38.6478, "lon": -73.2434, "value": 66.2, "label": "Hanes Ranch Forest Carbon Project — 139k issued / 121k retired · Improved Forest Management · United States", "name": "Hanes Ranch Forest Carbon Project", "description": "Improved Forest Management", "url": "https://gspp.berkeley.edu/berkeley-carbon-trading-project/offsets-database"}, {"lat": 39.9456, "lon": -75.768, "value": 59.0, "label": "D.P.C. Domestic ODS Destruction Project #12 — 39k issued / 39k retired · Ozone Depleting Substances Recovery & Destruction · United States", "name": "D.P.C. Domestic ODS Destruction Project #12", "description": "Ozone Depleting Substances Recovery & Destruction", "url": "https://gspp.berkeley.edu/berkeley-carbon-trading-project/offsets-database"}, {"lat": 41.5162, "lon": -75.5511, "value": 69.5, "label": "EOS ACR 2013 — 249k issued / 249k retired · Ozone Depleting Substances Recovery & Destruction · United States", "name": "EOS ACR 2013", "description": "Ozone Depleting Substances Recovery & Destruction", "url": "https://gspp.berkeley.edu/berkeley-carbon-trading-project/offsets-database"}, {"lat": 39.9934, "lon": -78.8033, "value": 59.7, "label": "Truck Stop Electrification, BEF — 44k issued / 44k retired · Truck Stop Electrification · United States", "name": "Truck Stop Electrification, BEF", "description": "Truck Stop Electrification", "url": "https://gspp.berkeley.edu/berkeley-carbon-trading-project/offsets-database"}, {"lat": 40.4006, "lon": -80.4084, "value": 70.3, "label": "Miller Forest — 287k issued / 255k retired · Improved Forest Management · United States", "name": "Miller Forest", "description": "Improved Forest Management", "url": "https://gspp.berkeley.edu/berkeley-carbon-trading-project/offsets-database"}, {"lat": 39.2189, "lon": -78.2736, "value": 68.1, "label": "Big Sky Dairy — 194k issued / 180k retired · Manure Methane Digester · United States", "name": "Big Sky Dairy", "description": "Manure Methane Digester", "url": "https://gspp.berkeley.edu/berkeley-carbon-trading-project/offsets-database"}, {"lat": -10.79, "lon": -53.1, "value": 74.5, "label": "MS Renovaveis Wind Power Complex: Mar e Terra, Areia Branca, Embuaca and  Icaraí — 610k issued / 22k retired · Wind · Brazil", "name": "MS Renovaveis Wind Power Complex: Mar e Terra, Areia Branca, Embuaca and  Icaraí", "description": "Wind", "url": "https://gspp.berkeley.edu/berkeley-carbon-trading-project/offsets-database"}, {"lat": 39.8997, "lon": -78.0075, "value": 68.3, "label": "Green Assets-Brookgreen Gardens Improved Forest Management Project — 202k issued / 200k retired · Improved Forest Management · United States", "name": "Green Assets-Brookgreen Gardens Improved Forest Management Project", "description": "Improved Forest Management", "url": "https://gspp.berkeley.edu/berkeley-carbon-trading-project/offsets-database"}, {"lat": 39.1086, "lon": -76.3621, "value": 63.4, "label": "EOS ARB ODS 2013-7 — 84k issued / 84k retired · Ozone Depleting Substances Recovery & Destruction · United States", "name": "EOS ARB ODS 2013-7", "description": "Ozone Depleting Substances Recovery & Destruction", "url": "https://gspp.berkeley.edu/berkeley-carbon-trading-project/offsets-database"}, {"lat": 37.5678, "lon": -76.915, "value": 65.5, "label": "EOS ARB ODS 2014-1 — 122k issued / 122k retired · Ozone Depleting Substances Recovery & Destruction · United States", "name": "EOS ARB ODS 2014-1", "description": "Ozone Depleting Substances Recovery & Destruction", "url": "https://gspp.berkeley.edu/berkeley-carbon-trading-project/offsets-database"}, {"lat": 37.5101, "lon": -78.2637, "value": 61.1, "label": "RR ACR 2013 — 56k issued / 56k retired · Ozone Depleting Substances Recovery & Destruction · United States", "name": "RR ACR 2013", "description": "Ozone Depleting Substances Recovery & Destruction", "url": "https://gspp.berkeley.edu/berkeley-carbon-trading-project/offsets-database"}, {"lat": 41.9417, "lon": -77.9432, "value": 63.7, "label": "Wabashco Clean Sweep 2 — 88k issued / 88k retired · Ozone Depleting Substances Recovery & Destruction · United States", "name": "Wabashco Clean Sweep 2", "description": "Ozone Depleting Substances Recovery & Destruction", "url": "https://gspp.berkeley.edu/berkeley-carbon-trading-project/offsets-database"}, {"lat": 35.7767, "lon": -76.3262, "value": 81.4, "label": "Finite Carbon - The Forestland Group CT Lakes — 2,106k issued / 2,089k retired · Improved Forest Management · United States", "name": "Finite Carbon - The Forestland Group CT Lakes", "description": "Improved Forest Management", "url": "https://gspp.berkeley.edu/berkeley-carbon-trading-project/offsets-database"}, {"lat": 38.6547, "lon": -75.3681, "value": 66.1, "label": "Brush Creek — 137k issued / 118k retired · Improved Forest Management · United States", "name": "Brush Creek", "description": "Improved Forest Management", "url": "https://gspp.berkeley.edu/berkeley-carbon-trading-project/offsets-database"}, {"lat": 37.2569, "lon": -78.6978, "value": 76.3, "label": "Blue Source - Goodman Improved Forest Management Project — 848k issued / 848k retired · Improved Forest Management · United States", "name": "Blue Source - Goodman Improved Forest Management Project", "description": "Improved Forest Management", "url": "https://gspp.berkeley.edu/berkeley-carbon-trading-project/offsets-database"}, {"lat": 35.7632, "lon": -76.7431, "value": 68.5, "label": "Improvements in Vehicle Efficiency for Marten Transport — 208k issued / 187k retired · Fleet Efficiency · United States", "name": "Improvements in Vehicle Efficiency for Marten Transport", "description": "Fleet Efficiency", "url": "https://gspp.berkeley.edu/berkeley-carbon-trading-project/offsets-database"}, {"lat": 36.8904, "lon": -79.8606, "value": 29.7, "label": "Emission Reductions in California Rice Management Systems — 0k issued / 0k retired · Rice Emission Reductions · United States", "name": "Emission Reductions in California Rice Management Systems", "description": "Rice Emission Reductions", "url": "https://gspp.berkeley.edu/berkeley-carbon-trading-project/offsets-database"}, {"lat": 38.0172, "lon": -78.097, "value": 62.5, "label": "2014-P4 — 72k issued / 72k retired · Ozone Depleting Substances Recovery & Destruction · United States", "name": "2014-P4", "description": "Ozone Depleting Substances Recovery & Destruction", "url": "https://gspp.berkeley.edu/berkeley-carbon-trading-project/offsets-database"}, {"lat": 38.2784, "lon": -78.5316, "value": 69.9, "label": "Improvements in Vehicle Efficiency for Crete Carrier Corp — 267k issued / 229k retired · Fleet Efficiency · United States", "name": "Improvements in Vehicle Efficiency for Crete Carrier Corp", "description": "Fleet Efficiency", "url": "https://gspp.berkeley.edu/berkeley-carbon-trading-project/offsets-database"}, {"lat": 39.1551, "lon": -73.9283, "value": 70.8, "label": "RR ACR 2014 — 316k issued / 316k retired · Ozone Depleting Substances Recovery & Destruction · United States", "name": "RR ACR 2014", "description": "Ozone Depleting Substances Recovery & Destruction", "url": "https://gspp.berkeley.edu/berkeley-carbon-trading-project/offsets-database"}, {"lat": 40.951, "lon": -74.3402, "value": 78.4, "label": "Huron Mountain Club Forest Carbon Project — 1,235k issued / 1,165k retired · Improved Forest Management · United States", "name": "Huron Mountain Club Forest Carbon Project", "description": "Improved Forest Management", "url": "https://gspp.berkeley.edu/berkeley-carbon-trading-project/offsets-database"}, {"lat": 40.2773, "lon": -73.9938, "value": 85.4, "label": "White Mountain Apache Tribe Forest Carbon Project — 4,330k issued / 3,780k retired · Improved Forest Management · United States", "name": "White Mountain Apache Tribe Forest Carbon Project", "description": "Improved Forest Management", "url": "https://gspp.berkeley.edu/berkeley-carbon-trading-project/offsets-database"}, {"lat": 47.0, "lon": -93.0, "value": 79.1, "label": "UPM Blandin Native American Hardwoods Conservation & Carbon Sequestration Project — 1,388k issued / 1,538k retired · Improved Forest Management · United States", "name": "UPM Blandin Native American Hardwoods Conservation & Carbon Sequestration Project", "description": "Improved Forest Management", "url": "https://gspp.berkeley.edu/berkeley-carbon-trading-project/offsets-database"}, {"lat": 38.9048, "lon": -80.1437, "value": 65.7, "label": "EOS ACR 213 — 128k issued / 128k retired · Ozone Depleting Substances Recovery & Destruction · United States", "name": "EOS ACR 213", "description": "Ozone Depleting Substances Recovery & Destruction", "url": "https://gspp.berkeley.edu/berkeley-carbon-trading-project/offsets-database"}, {"lat": 36.7504, "lon": -75.9862, "value": 66.5, "label": "EOS ACR 214 — 146k issued / 146k retired · Ozone Depleting Substances Recovery & Destruction · United States", "name": "EOS ACR 214", "description": "Ozone Depleting Substances Recovery & Destruction", "url": "https://gspp.berkeley.edu/berkeley-carbon-trading-project/offsets-database"}, {"lat": 38.6478, "lon": -80.7316, "value": 65.0, "label": "Wabashco Clean Sweep 3 — 112k issued / 112k retired · Ozone Depleting Substances Recovery & Destruction · United States", "name": "Wabashco Clean Sweep 3", "description": "Ozone Depleting Substances Recovery & Destruction", "url": "https://gspp.berkeley.edu/berkeley-carbon-trading-project/offsets-database"}, {"lat": 39.6232, "lon": -76.7467, "value": 68.6, "label": "Prairie Pothole Avoided Conversion of Grasslands and Shrublands — 212k issued / 174k retired · Avoided Grassland Conversion · United States", "name": "Prairie Pothole Avoided Conversion of Grasslands and Shrublands", "description": "Avoided Grassland Conversion", "url": "https://gspp.berkeley.edu/berkeley-carbon-trading-project/offsets-database"}, {"lat": 39.2843, "lon": -78.5098, "value": 71.8, "label": "Transformer Oil Reclamation Project — 379k issued / 340k retired · Oil Recycling · United States", "name": "Transformer Oil Reclamation Project", "description": "Oil Recycling", "url": "https://gspp.berkeley.edu/berkeley-carbon-trading-project/offsets-database"}, {"lat": -10.79, "lon": -53.1, "value": 73.0, "label": "SANTOS ENERGIA WIND POWER COMPLEX: SANTO ANTÔNIO DE PÁDUA, SÃO CRISTÓVÃO AND SÃO JORGE — 468k issued / 197k retired · Wind · Brazil", "name": "SANTOS ENERGIA WIND POWER COMPLEX: SANTO ANTÔNIO DE PÁDUA, SÃO CRISTÓVÃO AND SÃO JORGE", "description": "Wind", "url": "https://gspp.berkeley.edu/berkeley-carbon-trading-project/offsets-database"}, {"lat": 37.3383, "lon": -75.6909, "value": 64.9, "label": "Wabashco Clean Sweep 4 — 110k issued / 110k retired · Ozone Depleting Substances Recovery & Destruction · United States", "name": "Wabashco Clean Sweep 4", "description": "Ozone Depleting Substances Recovery & Destruction", "url": "https://gspp.berkeley.edu/berkeley-carbon-trading-project/offsets-database"}, {"lat": 40.5576, "lon": -80.2708, "value": 80.1, "label": "Marshall County VAM Abatement Project — 1,660k issued / 1,591k retired · Mine Methane Capture · United States", "name": "Marshall County VAM Abatement Project", "description": "Mine Methane Capture", "url": "https://gspp.berkeley.edu/berkeley-carbon-trading-project/offsets-database"}, {"lat": 40.2741, "lon": -77.7732, "value": 33.4, "label": "Emission Reductions in Midsouth Rice Management Systems — 0k issued / 0k retired · Rice Emission Reductions · United States", "name": "Emission Reductions in Midsouth Rice Management Systems", "description": "Rice Emission Reductions", "url": "https://gspp.berkeley.edu/berkeley-carbon-trading-project/offsets-database"}, {"lat": 39.6615, "lon": -79.1703, "value": 70.5, "label": "The Dry Creek Dairy Biofactory Project — 298k issued / 298k retired · Manure Methane Digester · United States", "name": "The Dry Creek Dairy Biofactory Project", "description": "Manure Methane Digester", "url": "https://gspp.berkeley.edu/berkeley-carbon-trading-project/offsets-database"}, {"lat": 37.6739, "lon": -75.0591, "value": 70.4, "label": "Double A Dairy — 295k issued / 295k retired · Manure Methane Digester · United States", "name": "Double A Dairy", "description": "Manure Methane Digester", "url": "https://gspp.berkeley.edu/berkeley-carbon-trading-project/offsets-database"}, {"lat": 39.2494, "lon": -78.3263, "value": 63.4, "label": "Alliance Dairy — 84k issued / 84k retired · Manure Methane Digester · United States", "name": "Alliance Dairy", "description": "Manure Methane Digester", "url": "https://gspp.berkeley.edu/berkeley-carbon-trading-project/offsets-database"}, {"lat": 37.6519, "lon": -80.5237, "value": 60.3, "label": "Synergy Biogas, LLC — 48k issued / 48k retired · Manure Methane Digester · United States", "name": "Synergy Biogas, LLC", "description": "Manure Methane Digester", "url": "https://gspp.berkeley.edu/berkeley-carbon-trading-project/offsets-database"}, {"lat": 41.6813, "lon": -75.3759, "value": 55.2, "label": "Green Meadow Farm — 19k issued / 19k retired · Manure Methane Digester · United States", "name": "Green Meadow Farm", "description": "Manure Methane Digester", "url": "https://gspp.berkeley.edu/berkeley-carbon-trading-project/offsets-database"}, {"lat": 40.3862, "lon": -76.4873, "value": 65.1, "label": "Willet Dairy — 115k issued / 106k retired · Manure Methane Digester · United States", "name": "Willet Dairy", "description": "Manure Methane Digester", "url": "https://gspp.berkeley.edu/berkeley-carbon-trading-project/offsets-database"}, {"lat": 36.3627, "lon": -77.5299, "value": 59.6, "label": "Edaleen Cow Power, LLC — 43k issued / 43k retired · Manure Methane Digester · United States", "name": "Edaleen Cow Power, LLC", "description": "Manure Methane Digester", "url": "https://gspp.berkeley.edu/berkeley-carbon-trading-project/offsets-database"}, {"lat": 38.0788, "lon": -76.464, "value": 65.8, "label": "EOS ACR 240 — 130k issued / 130k retired · Ozone Depleting Substances Recovery & Destruction · United States", "name": "EOS ACR 240", "description": "Ozone Depleting Substances Recovery & Destruction", "url": "https://gspp.berkeley.edu/berkeley-carbon-trading-project/offsets-database"}, {"lat": 36.8084, "lon": -77.2049, "value": 63.9, "label": "Gardeau Crest Dairy — 92k issued / 92k retired · Manure Methane Digester · United States", "name": "Gardeau Crest Dairy", "description": "Manure Methane Digester", "url": "https://gspp.berkeley.edu/berkeley-carbon-trading-project/offsets-database"}, {"lat": 39.8184, "lon": -73.2101, "value": 68.8, "label": "Cambria 33 Abandoned Mine Methane Capture and Use Project — 221k issued / 133k retired · Mine Methane Capture · United States", "name": "Cambria 33 Abandoned Mine Methane Capture and Use Project", "description": "Mine Methane Capture", "url": "https://gspp.berkeley.edu/berkeley-carbon-trading-project/offsets-database"}, {"lat": 39.8967, "lon": -74.4035, "value": 69.9, "label": "Elk Creek Coal Mine Methane Destruction & Utilization Project — 266k issued / 266k retired · Mine Methane Capture · United States", "name": "Elk Creek Coal Mine Methane Destruction & Utilization Project", "description": "Mine Methane Capture", "url": "https://gspp.berkeley.edu/berkeley-carbon-trading-project/offsets-database"}, {"lat": 39.248, "lon": -80.0702, "value": 61.3, "label": "Wabashco Clean Sweep 5 — 58k issued / 58k retired · Ozone Depleting Substances Recovery & Destruction · United States", "name": "Wabashco Clean Sweep 5", "description": "Ozone Depleting Substances Recovery & Destruction", "url": "https://gspp.berkeley.edu/berkeley-carbon-trading-project/offsets-database"}, {"lat": 37.8003, "lon": -77.0149, "value": 75.1, "label": "Finite Carbon - The Forestland Group Chateaugay Woodlands IFM — 678k issued / 630k retired · Improved Forest Management · United States", "name": "Finite Carbon - The Forestland Group Chateaugay Woodlands IFM", "description": "Improved Forest Management", "url": "https://gspp.berkeley.edu/berkeley-carbon-trading-project/offsets-database"}, {"lat": 39.3058, "lon": -79.1741, "value": 83.7, "label": "Cumberland Forest Highlands IFM — 3,191k issued / 3,058k retired · Improved Forest Management · United States", "name": "Cumberland Forest Highlands IFM", "description": "Improved Forest Management", "url": "https://gspp.berkeley.edu/berkeley-carbon-trading-project/offsets-database"}, {"lat": 37.124, "lon": -78.4689, "value": 86.3, "label": "Finite Carbon - Lyme Wyoming IFM — 5,027k issued / 4,239k retired · Improved Forest Management · United States", "name": "Finite Carbon - Lyme Wyoming IFM", "description": "Improved Forest Management", "url": "https://gspp.berkeley.edu/berkeley-carbon-trading-project/offsets-database"}, {"lat": 36.7524, "lon": -78.2612, "value": 71.3, "label": "Glasscock Island — 348k issued / 348k retired · Improved Forest Management · United States", "name": "Glasscock Island", "description": "Improved Forest Management", "url": "https://gspp.berkeley.edu/berkeley-carbon-trading-project/offsets-database"}, {"lat": 37.0987, "lon": -74.9724, "value": 66.3, "label": "EOS ACR 252 — 141k issued / 141k retired · Ozone Depleting Substances Recovery & Destruction · United States", "name": "EOS ACR 252", "description": "Ozone Depleting Substances Recovery & Destruction", "url": "https://gspp.berkeley.edu/berkeley-carbon-trading-project/offsets-database"}, {"lat": 40.7841, "lon": -78.2297, "value": 66.1, "label": "EOS ACR 253 — 135k issued / 135k retired · Ozone Depleting Substances Recovery & Destruction · United States", "name": "EOS ACR 253", "description": "Ozone Depleting Substances Recovery & Destruction", "url": "https://gspp.berkeley.edu/berkeley-carbon-trading-project/offsets-database"}, {"lat": 37.5265, "lon": -79.6301, "value": 59.1, "label": "Wabashco Clean Sweep 6 — 39k issued / 39k retired · Ozone Depleting Substances Recovery & Destruction · United States", "name": "Wabashco Clean Sweep 6", "description": "Ozone Depleting Substances Recovery & Destruction", "url": "https://gspp.berkeley.edu/berkeley-carbon-trading-project/offsets-database"}, {"lat": 39.16, "lon": -80.7641, "value": 91.5, "label": "Finite Carbon - Colville IFM — 12,691k issued / 10,310k retired · Improved Forest Management · United States", "name": "Finite Carbon - Colville IFM", "description": "Improved Forest Management", "url": "https://gspp.berkeley.edu/berkeley-carbon-trading-project/offsets-database"}, {"lat": 39.91, "lon": -77.7575, "value": 71.3, "label": "Finite Carbon - Tennessee River Gorge Trust IFM — 345k issued / 343k retired · Improved Forest Management · United States", "name": "Finite Carbon - Tennessee River Gorge Trust IFM", "description": "Improved Forest Management", "url": "https://gspp.berkeley.edu/berkeley-carbon-trading-project/offsets-database"}, {"lat": 41.5341, "lon": -74.9909, "value": 68.1, "label": "Finite Carbon - Cook's Branch Conservancy IFM — 195k issued / 183k retired · Improved Forest Management · United States", "name": "Finite Carbon - Cook's Branch Conservancy IFM", "description": "Improved Forest Management", "url": "https://gspp.berkeley.edu/berkeley-carbon-trading-project/offsets-database"}, {"lat": 37.9555, "lon": -80.7024, "value": 64.2, "label": "Homestead Green Energy — 96k issued / 53k retired · Manure Methane Digester · United States", "name": "Homestead Green Energy", "description": "Manure Methane Digester", "url": "https://gspp.berkeley.edu/berkeley-carbon-trading-project/offsets-database"}, {"lat": 39.1748, "lon": -81.0597, "value": 81.9, "label": "Warm Springs Phase I — 2,275k issued / 1,979k retired · Improved Forest Management · United States", "name": "Warm Springs Phase I", "description": "Improved Forest Management", "url": "https://gspp.berkeley.edu/berkeley-carbon-trading-project/offsets-database"}, {"lat": 37.5499, "lon": -75.2909, "value": 66.7, "label": "Replacement of SF6 as a Cover Gas at US Magnesium — 152k issued / 0k retired · SF6 Replacement · United States", "name": "Replacement of SF6 as a Cover Gas at US Magnesium", "description": "SF6 Replacement", "url": "https://gspp.berkeley.edu/berkeley-carbon-trading-project/offsets-database"}, {"lat": 39.5167, "lon": -77.3514, "value": 77.1, "label": "Bewley Ranches — 965k issued / 519k retired · Improved Forest Management · United States", "name": "Bewley Ranches", "description": "Improved Forest Management", "url": "https://gspp.berkeley.edu/berkeley-carbon-trading-project/offsets-database"}, {"lat": 38.5642, "lon": -75.1086, "value": 41.5, "label": "Truck Stop Electrification, Washington — 2k issued / 2k retired · Truck Stop Electrification · United States", "name": "Truck Stop Electrification, Washington", "description": "Truck Stop Electrification", "url": "https://gspp.berkeley.edu/berkeley-carbon-trading-project/offsets-database"}, {"lat": 38.4585, "lon": -76.6066, "value": 30.7, "label": "Truck Stop Electrification, New York — 0k issued / 0k retired · Truck Stop Electrification · United States", "name": "Truck Stop Electrification, New York", "description": "Truck Stop Electrification", "url": "https://gspp.berkeley.edu/berkeley-carbon-trading-project/offsets-database"}, {"lat": 36.4034, "lon": -77.4181, "value": 71.2, "label": "Green Assets - Lukens Avoided Conversion Project — 336k issued / 291k retired · Avoided Forest Conversion · United States", "name": "Green Assets - Lukens Avoided Conversion Project", "description": "Avoided Forest Conversion", "url": "https://gspp.berkeley.edu/berkeley-carbon-trading-project/offsets-database"}, {"lat": 36.5568, "lon": -77.3623, "value": 77.5, "label": "Green Assets - Milbury Avoided Conversion Project — 1,045k issued / 874k retired · Avoided Forest Conversion · United States", "name": "Green Assets - Milbury Avoided Conversion Project", "description": "Avoided Forest Conversion", "url": "https://gspp.berkeley.edu/berkeley-carbon-trading-project/offsets-database"}, {"lat": 40.277, "lon": -78.5646, "value": 80.8, "label": "Blue Source - Powellton Improved Forest Management Project — 1,882k issued / 1,369k retired · Improved Forest Management · United States", "name": "Blue Source - Powellton Improved Forest Management Project", "description": "Improved Forest Management", "url": "https://gspp.berkeley.edu/berkeley-carbon-trading-project/offsets-database"}, {"lat": 36.0257, "lon": -77.3536, "value": 88.8, "label": "Green Assets - HMWCF-I Avoided Conversion Project — 7,840k issued / 3,980k retired · Avoided Forest Conversion · United States", "name": "Green Assets - HMWCF-I Avoided Conversion Project", "description": "Avoided Forest Conversion", "url": "https://gspp.berkeley.edu/berkeley-carbon-trading-project/offsets-database"}, {"lat": 37.0303, "lon": -79.9408, "value": 80.6, "label": "Green Assets - HMWCF-II Avoided Conversion Project — 1,831k issued / 1,460k retired · Avoided Forest Conversion · United States", "name": "Green Assets - HMWCF-II Avoided Conversion Project", "description": "Avoided Forest Conversion", "url": "https://gspp.berkeley.edu/berkeley-carbon-trading-project/offsets-database"}, {"lat": 38.2937, "lon": -77.2195, "value": 65.6, "label": "EOS ACR 271 — 125k issued / 125k retired · Ozone Depleting Substances Recovery & Destruction · United States", "name": "EOS ACR 271", "description": "Ozone Depleting Substances Recovery & Destruction", "url": "https://gspp.berkeley.edu/berkeley-carbon-trading-project/offsets-database"}, {"lat": 39.88, "lon": -101.52, "value": 71.8, "label": "Bear Creek Watershed Forest Carbon Project — 376k issued / 411k retired · Improved Forest Management · United States", "name": "Bear Creek Watershed Forest Carbon Project", "description": "Improved Forest Management", "url": "https://gspp.berkeley.edu/berkeley-carbon-trading-project/offsets-database"}, {"lat": 38.3474, "lon": -79.7407, "value": 76.9, "label": "Green Diamond Resource Company Klamath East IFM — 938k issued / 565k retired · Improved Forest Management · United States", "name": "Green Diamond Resource Company Klamath East IFM", "description": "Improved Forest Management", "url": "https://gspp.berkeley.edu/berkeley-carbon-trading-project/offsets-database"}, {"lat": 38.4149, "lon": -73.8361, "value": 77.5, "label": "Green Diamond Resource Company Klamath West IFM — 1,049k issued / 853k retired · Improved Forest Management · United States", "name": "Green Diamond Resource Company Klamath West IFM", "description": "Improved Forest Management", "url": "https://gspp.berkeley.edu/berkeley-carbon-trading-project/offsets-database"}, {"lat": 41.0208, "lon": -76.7458, "value": 65.2, "label": "Wabashco Clean Sweep 7 — 117k issued / 117k retired · Ozone Depleting Substances Recovery & Destruction · United States", "name": "Wabashco Clean Sweep 7", "description": "Ozone Depleting Substances Recovery & Destruction", "url": "https://gspp.berkeley.edu/berkeley-carbon-trading-project/offsets-database"}, {"lat": 41.76, "lon": -76.9327, "value": 81.1, "label": "Blue Source - Allegheny Improved Forest Management Project — 1,973k issued / 1,947k retired · Improved Forest Management · United States", "name": "Blue Source - Allegheny Improved Forest Management Project", "description": "Improved Forest Management", "url": "https://gspp.berkeley.edu/berkeley-carbon-trading-project/offsets-database"}, {"lat": 39.8738, "lon": -77.1281, "value": 74.7, "label": "Cumberland Forest - Lonesome Pine Improved Forest Management Project — 628k issued / 599k retired · Improved Forest Management · United States", "name": "Cumberland Forest - Lonesome Pine Improved Forest Management Project", "description": "Improved Forest Management", "url": "https://gspp.berkeley.edu/berkeley-carbon-trading-project/offsets-database"}, {"lat": 39.0035, "lon": -74.6219, "value": 78.0, "label": "Blue Source - Marmet Improved Forest Management Project — 1,137k issued / 956k retired · Improved Forest Management · United States", "name": "Blue Source - Marmet Improved Forest Management Project", "description": "Improved Forest Management", "url": "https://gspp.berkeley.edu/berkeley-carbon-trading-project/offsets-database"}, {"lat": 39.2649, "lon": -73.4706, "value": 71.1, "label": "Blue Source - Wisconsin Northern Highlands Improved Forest Management Project — 332k issued / 332k retired · Improved Forest Management · United States", "name": "Blue Source - Wisconsin Northern Highlands Improved Forest Management Project", "description": "Improved Forest Management", "url": "https://gspp.berkeley.edu/berkeley-carbon-trading-project/offsets-database"}, {"lat": 39.4886, "lon": -73.9682, "value": 78.2, "label": "Blue Creek — 1,183k issued / 1,120k retired · Improved Forest Management · United States", "name": "Blue Creek", "description": "Improved Forest Management", "url": "https://gspp.berkeley.edu/berkeley-carbon-trading-project/offsets-database"}, {"lat": 39.6609, "lon": -78.9027, "value": 64.1, "label": "Rosendale Anaerobic Digester — 95k issued / 95k retired · Manure Methane Digester · United States", "name": "Rosendale Anaerobic Digester", "description": "Manure Methane Digester", "url": "https://gspp.berkeley.edu/berkeley-carbon-trading-project/offsets-database"}, {"lat": 36.1515, "lon": -76.7078, "value": 75.3, "label": "Finite Carbon - Massachusetts Audubon Society IFM — 708k issued / 673k retired · Improved Forest Management · United States", "name": "Finite Carbon - Massachusetts Audubon Society IFM", "description": "Improved Forest Management", "url": "https://gspp.berkeley.edu/berkeley-carbon-trading-project/offsets-database"}, {"lat": 41.2233, "lon": -76.3214, "value": 60.0, "label": "EOS ACR 285 — 46k issued / 46k retired · Ozone Depleting Substances Recovery & Destruction · United States", "name": "EOS ACR 285", "description": "Ozone Depleting Substances Recovery & Destruction", "url": "https://gspp.berkeley.edu/berkeley-carbon-trading-project/offsets-database"}, {"lat": 37.1055, "lon": -79.7953, "value": 74.5, "label": "Green Assets - BJT Avoided Conversion Project — 614k issued / 442k retired · Avoided Forest Conversion · United States", "name": "Green Assets - BJT Avoided Conversion Project", "description": "Avoided Forest Conversion", "url": "https://gspp.berkeley.edu/berkeley-carbon-trading-project/offsets-database"}, {"lat": 39.9275, "lon": -80.0016, "value": 57.8, "label": "Camp Shelby Forest Carbon Project — 31k issued / 26k retired · Improved Forest Management · United States", "name": "Camp Shelby Forest Carbon Project", "description": "Improved Forest Management", "url": "https://gspp.berkeley.edu/berkeley-carbon-trading-project/offsets-database"}, {"lat": 38.9397, "lon": -73.3623, "value": 67.7, "label": "Congaree River — 183k issued / 130k retired · Improved Forest Management · United States", "name": "Congaree River", "description": "Improved Forest Management", "url": "https://gspp.berkeley.edu/berkeley-carbon-trading-project/offsets-database"}, {"lat": 37.8122, "lon": -78.4677, "value": 71.8, "label": "Finite Carbon - Lakes Region Conservation Trust IFM — 374k issued / 374k retired · Improved Forest Management · United States", "name": "Finite Carbon - Lakes Region Conservation Trust IFM", "description": "Improved Forest Management", "url": "https://gspp.berkeley.edu/berkeley-carbon-trading-project/offsets-database"}, {"lat": 41.159, "lon": -76.1074, "value": 86.9, "label": "White Mountain Apache Tribe Carbon Project II — 5,623k issued / 4,946k retired · Improved Forest Management · United States", "name": "White Mountain Apache Tribe Carbon Project II", "description": "Improved Forest Management", "url": "https://gspp.berkeley.edu/berkeley-carbon-trading-project/offsets-database"}, {"lat": 40.156, "lon": -88.2762, "value": 50.6, "label": "EOS HFC 310 — 8k issued / 8k retired · HFC Refrigerant Reclamation · United States", "name": "EOS HFC 310", "description": "HFC Refrigerant Reclamation", "url": "https://gspp.berkeley.edu/berkeley-carbon-trading-project/offsets-database"}, {"lat": 38.7686, "lon": -80.8845, "value": 64.8, "label": "EOS ACR 311 — 107k issued / 107k retired · Ozone Depleting Substances Recovery & Destruction · United States", "name": "EOS ACR 311", "description": "Ozone Depleting Substances Recovery & Destruction", "url": "https://gspp.berkeley.edu/berkeley-carbon-trading-project/offsets-database"}, {"lat": 40.2668, "lon": -77.7055, "value": 66.3, "label": "EOS ACR 312 — 141k issued / 141k retired · Ozone Depleting Substances Recovery & Destruction · United States", "name": "EOS ACR 312", "description": "Ozone Depleting Substances Recovery & Destruction", "url": "https://gspp.berkeley.edu/berkeley-carbon-trading-project/offsets-database"}, {"lat": 41.9671, "lon": -77.3667, "value": 67.2, "label": "High Island Dairy — 167k issued / 137k retired · Manure Methane Digester · United States", "name": "High Island Dairy", "description": "Manure Methane Digester", "url": "https://gspp.berkeley.edu/berkeley-carbon-trading-project/offsets-database"}, {"lat": 39.9785, "lon": -79.9198, "value": 65.0, "label": "Wabashco Clean Sweep 8 — 112k issued / 112k retired · Ozone Depleting Substances Recovery & Destruction · United States", "name": "Wabashco Clean Sweep 8", "description": "Ozone Depleting Substances Recovery & Destruction", "url": "https://gspp.berkeley.edu/berkeley-carbon-trading-project/offsets-database"}, {"lat": 41.5312, "lon": -78.8669, "value": 63.6, "label": "EOS ACR 315 — 87k issued / 87k retired · Ozone Depleting Substances Recovery & Destruction · United States", "name": "EOS ACR 315", "description": "Ozone Depleting Substances Recovery & Destruction", "url": "https://gspp.berkeley.edu/berkeley-carbon-trading-project/offsets-database"}, {"lat": 39.1578, "lon": -76.7391, "value": 64.6, "label": "EOS ACR 316 — 105k issued / 105k retired · Ozone Depleting Substances Recovery & Destruction · United States", "name": "EOS ACR 316", "description": "Ozone Depleting Substances Recovery & Destruction", "url": "https://gspp.berkeley.edu/berkeley-carbon-trading-project/offsets-database"}, {"lat": 40.8399, "lon": -79.6479, "value": 55.4, "label": "Statz Bros. Home Farm Anaerobic Digester — 20k issued / 20k retired · Manure Methane Digester · United States", "name": "Statz Bros. Home Farm Anaerobic Digester", "description": "Manure Methane Digester", "url": "https://gspp.berkeley.edu/berkeley-carbon-trading-project/offsets-database"}, {"lat": 36.366, "lon": -79.4564, "value": 58.5, "label": "Statz B Farm Anaerobic Digester — 35k issued / 35k retired · Manure Methane Digester · United States", "name": "Statz B Farm Anaerobic Digester", "description": "Manure Methane Digester", "url": "https://gspp.berkeley.edu/berkeley-carbon-trading-project/offsets-database"}, {"lat": 40.7618, "lon": -75.89, "value": 90.6, "label": "Finite Carbon - Sealaska Native Alaskan IFM — 10,936k issued / 10,070k retired · Improved Forest Management · United States", "name": "Finite Carbon - Sealaska Native Alaskan IFM", "description": "Improved Forest Management", "url": "https://gspp.berkeley.edu/berkeley-carbon-trading-project/offsets-database"}, {"lat": 37.6338, "lon": -79.75, "value": 43.1, "label": "Baker Mine AMM — 2k issued / 2k retired · Mine Methane Capture · United States", "name": "Baker Mine AMM", "description": "Mine Methane Capture", "url": "https://gspp.berkeley.edu/berkeley-carbon-trading-project/offsets-database"}, {"lat": 38.7513, "lon": -80.6687, "value": 64.0, "label": "Wabashco Clean Sweep 9 — 93k issued / 93k retired · Ozone Depleting Substances Recovery & Destruction · United States", "name": "Wabashco Clean Sweep 9", "description": "Ozone Depleting Substances Recovery & Destruction", "url": "https://gspp.berkeley.edu/berkeley-carbon-trading-project/offsets-database"}, {"lat": 39.88, "lon": -101.52, "value": 53.1, "label": "Foam Blowing Agent Project 001 — 13k issued / 13k retired · HFC Replacement in Foam Production · United States", "name": "Foam Blowing Agent Project 001", "description": "HFC Replacement in Foam Production", "url": "https://gspp.berkeley.edu/berkeley-carbon-trading-project/offsets-database"}, {"lat": 38.9148, "lon": -74.9304, "value": 64.5, "label": "Kettle Butte Digester — 103k issued / 103k retired · Manure Methane Digester · United States", "name": "Kettle Butte Digester", "description": "Manure Methane Digester", "url": "https://gspp.berkeley.edu/berkeley-carbon-trading-project/offsets-database"}, {"lat": 37.7794, "lon": -79.1472, "value": 65.2, "label": "Tradewater ODS 1 — 117k issued / 117k retired · Ozone Depleting Substances Recovery & Destruction · United States", "name": "Tradewater ODS 1", "description": "Ozone Depleting Substances Recovery & Destruction", "url": "https://gspp.berkeley.edu/berkeley-carbon-trading-project/offsets-database"}, {"lat": 38.3633, "lon": -79.5559, "value": 57.4, "label": "EOS ACR 351 — 29k issued / 29k retired · Ozone Depleting Substances Recovery & Destruction · United States", "name": "EOS ACR 351", "description": "Ozone Depleting Substances Recovery & Destruction", "url": "https://gspp.berkeley.edu/berkeley-carbon-trading-project/offsets-database"}, {"lat": 40.3671, "lon": -75.6236, "value": 62.3, "label": "EOS ACR 352 — 69k issued / 69k retired · Ozone Depleting Substances Recovery & Destruction · United States", "name": "EOS ACR 352", "description": "Ozone Depleting Substances Recovery & Destruction", "url": "https://gspp.berkeley.edu/berkeley-carbon-trading-project/offsets-database"}, {"lat": 41.3204, "lon": -77.1523, "value": 50.1, "label": "Cow Poo Digester — 8k issued / 8k retired · Manure Methane Digester · United States", "name": "Cow Poo Digester", "description": "Manure Methane Digester", "url": "https://gspp.berkeley.edu/berkeley-carbon-trading-project/offsets-database"}, {"lat": 40.1044, "lon": -77.3521, "value": 64.6, "label": "Tradewater ODS2 — 103k issued / 103k retired · Ozone Depleting Substances Recovery & Destruction · United States", "name": "Tradewater ODS2", "description": "Ozone Depleting Substances Recovery & Destruction", "url": "https://gspp.berkeley.edu/berkeley-carbon-trading-project/offsets-database"}, {"lat": 41.2294, "lon": -79.1473, "value": 62.2, "label": "Greenwood Dairy Anaerobic Digester — 67k issued / 67k retired · Manure Methane Digester · United States", "name": "Greenwood Dairy Anaerobic Digester", "description": "Manure Methane Digester", "url": "https://gspp.berkeley.edu/berkeley-carbon-trading-project/offsets-database"}, {"lat": 36.9816, "lon": -75.1615, "value": 64.9, "label": "EOS ACR 356 — 111k issued / 111k retired · Ozone Depleting Substances Recovery & Destruction · United States", "name": "EOS ACR 356", "description": "Ozone Depleting Substances Recovery & Destruction", "url": "https://gspp.berkeley.edu/berkeley-carbon-trading-project/offsets-database"}, {"lat": 41.688, "lon": -76.449, "value": 63.4, "label": "EOS ACR 357 — 84k issued / 84k retired · Ozone Depleting Substances Recovery & Destruction · United States", "name": "EOS ACR 357", "description": "Ozone Depleting Substances Recovery & Destruction", "url": "https://gspp.berkeley.edu/berkeley-carbon-trading-project/offsets-database"}, {"lat": 38.7123, "lon": -75.6032, "value": 61.6, "label": "EOS ACR 358 — 61k issued / 61k retired · Ozone Depleting Substances Recovery & Destruction · United States", "name": "EOS ACR 358", "description": "Ozone Depleting Substances Recovery & Destruction", "url": "https://gspp.berkeley.edu/berkeley-carbon-trading-project/offsets-database"}, {"lat": 35.9053, "lon": -75.6173, "value": 64.3, "label": "Tradewater ODS 3 — 98k issued / 98k retired · Ozone Depleting Substances Recovery & Destruction · United States", "name": "Tradewater ODS 3", "description": "Ozone Depleting Substances Recovery & Destruction", "url": "https://gspp.berkeley.edu/berkeley-carbon-trading-project/offsets-database"}, {"lat": 40.0679, "lon": -79.6894, "value": 91.9, "label": "Finite Carbon - Ahtna Native Alaskan IFM — 13,619k issued / 13,043k retired · Improved Forest Management · United States", "name": "Finite Carbon - Ahtna Native Alaskan IFM", "description": "Improved Forest Management", "url": "https://gspp.berkeley.edu/berkeley-carbon-trading-project/offsets-database"}, {"lat": 39.203, "lon": -77.3031, "value": 81.2, "label": "Forest Carbon Partners - Port Graham Corporation Improved Forest Management Project — 2,041k issued / 2,006k retired · Improved Forest Management · United States", "name": "Forest Carbon Partners - Port Graham Corporation Improved Forest Management Project", "description": "Improved Forest Management", "url": "https://gspp.berkeley.edu/berkeley-carbon-trading-project/offsets-database"}, {"lat": 39.88, "lon": -101.52, "value": 64.7, "label": "Whirlpool HFO Amana 362 — 106k issued / 106k retired · HFC Replacement in Foam Production · United States", "name": "Whirlpool HFO Amana 362", "description": "HFC Replacement in Foam Production", "url": "https://gspp.berkeley.edu/berkeley-carbon-trading-project/offsets-database"}, {"lat": 39.8662, "lon": -80.0582, "value": 63.9, "label": "Tradewater ODS 4 — 92k issued / 92k retired · Ozone Depleting Substances Recovery & Destruction · United States", "name": "Tradewater ODS 4", "description": "Ozone Depleting Substances Recovery & Destruction", "url": "https://gspp.berkeley.edu/berkeley-carbon-trading-project/offsets-database"}, {"lat": 39.88, "lon": -101.52, "value": 48.6, "label": "HFC Emissions Reduction in Spray Foam by Replacement of HFC-245fa Blowing Agent with Solstice LBA (HFO-1233zd(E)) 2014 and 2015 — 6k issued / 6k retired · HFC Replacement in Foam Production · United States", "name": "HFC Emissions Reduction in Spray Foam by Replacement of HFC-245fa Blowing Agent with Solstice LBA (HFO-1233zd(E)) 2014 and 2015", "description": "HFC Replacement in Foam Production", "url": "https://gspp.berkeley.edu/berkeley-carbon-trading-project/offsets-database"}, {"lat": 39.88, "lon": -101.52, "value": 57.4, "label": "HFC Emissions Reduction in Spray Foam by Replacement of HFC-245fa Blowing Agent with Solstice LBA (HFO-1233zd(E)) 2015 — 29k issued / 29k retired · HFC Replacement in Foam Production · United States", "name": "HFC Emissions Reduction in Spray Foam by Replacement of HFC-245fa Blowing Agent with Solstice LBA (HFO-1233zd(E)) 2015", "description": "HFC Replacement in Foam Production", "url": "https://gspp.berkeley.edu/berkeley-carbon-trading-project/offsets-database"}, {"lat": 36.2106, "lon": -77.959, "value": 76.4, "label": "Elk Creek Permit Area Abandoned Mine Project — 863k issued / 599k retired · Mine Methane Capture · United States", "name": "Elk Creek Permit Area Abandoned Mine Project", "description": "Mine Methane Capture", "url": "https://gspp.berkeley.edu/berkeley-carbon-trading-project/offsets-database"}, {"lat": 43.96, "lon": -72.99, "value": 66.2, "label": "Anew - Middlebury Forestry Project — 139k issued / 132k retired · Improved Forest Management · United States", "name": "Anew - Middlebury Forestry Project", "description": "Improved Forest Management", "url": "https://gspp.berkeley.edu/berkeley-carbon-trading-project/offsets-database"}, {"lat": 45.0873, "lon": -93.7415, "value": 65.1, "label": "Foam Blowing Agent Project 002 — 114k issued / 114k retired · HFC Replacement in Foam Production · United States", "name": "Foam Blowing Agent Project 002", "description": "HFC Replacement in Foam Production", "url": "https://gspp.berkeley.edu/berkeley-carbon-trading-project/offsets-database"}, {"lat": 37.5275, "lon": -73.6081, "value": 65.5, "label": "Tradewater ODS 5 — 121k issued / 121k retired · Ozone Depleting Substances Recovery & Destruction · United States", "name": "Tradewater ODS 5", "description": "Ozone Depleting Substances Recovery & Destruction", "url": "https://gspp.berkeley.edu/berkeley-carbon-trading-project/offsets-database"}, {"lat": 40.0612, "lon": -74.3728, "value": 71.3, "label": "Blue Source - Great Mountain Forest Improved Forest Management Project — 344k issued / 344k retired · Improved Forest Management · United States", "name": "Blue Source - Great Mountain Forest Improved Forest Management Project", "description": "Improved Forest Management", "url": "https://gspp.berkeley.edu/berkeley-carbon-trading-project/offsets-database"}, {"lat": 40.6208, "lon": -77.2356, "value": 73.2, "label": "Blue Source - Northwoods Improved Forest Management Project — 482k issued / 411k retired · Improved Forest Management · United States", "name": "Blue Source - Northwoods Improved Forest Management Project", "description": "Improved Forest Management", "url": "https://gspp.berkeley.edu/berkeley-carbon-trading-project/offsets-database"}, {"lat": 35.985, "lon": -85.34, "value": 70.0, "label": "Anew - Shafer-Tuuk Forestry Project — 272k issued / 229k retired · Improved Forest Management · United States", "name": "Anew - Shafer-Tuuk Forestry Project", "description": "Improved Forest Management", "url": "https://gspp.berkeley.edu/berkeley-carbon-trading-project/offsets-database"}, {"lat": 40.637, "lon": -75.986, "value": 68.8, "label": "Hawk Mountain Forestry Project — 221k issued / 187k retired · Improved Forest Management · United States", "name": "Hawk Mountain Forestry Project", "description": "Improved Forest Management", "url": "https://gspp.berkeley.edu/berkeley-carbon-trading-project/offsets-database"}, {"lat": 42.2445, "lon": -72.7817, "value": 76.3, "label": "Anew - Massachusetts Tri-City Forestry Project — 840k issued / 430k retired · Improved Forest Management · United States", "name": "Anew - Massachusetts Tri-City Forestry Project", "description": "Improved Forest Management", "url": "https://gspp.berkeley.edu/berkeley-carbon-trading-project/offsets-database"}, {"lat": 40.9918, "lon": -77.323, "value": 71.0, "label": "Cappell Creek Improved Forest Management Project — 328k issued / 322k retired · Improved Forest Management · United States", "name": "Cappell Creek Improved Forest Management Project", "description": "Improved Forest Management", "url": "https://gspp.berkeley.edu/berkeley-carbon-trading-project/offsets-database"}, {"lat": 40.0786, "lon": -75.6619, "value": 70.6, "label": "Lord Ellis Improved Forest Management Project — 306k issued / 255k retired · Improved Forest Management · United States", "name": "Lord Ellis Improved Forest Management Project", "description": "Improved Forest Management", "url": "https://gspp.berkeley.edu/berkeley-carbon-trading-project/offsets-database"}, {"lat": 41.5241, "lon": -78.4971, "value": 65.4, "label": "Tradewater ODS 6 — 121k issued / 121k retired · Ozone Depleting Substances Recovery & Destruction · United States", "name": "Tradewater ODS 6", "description": "Ozone Depleting Substances Recovery & Destruction", "url": "https://gspp.berkeley.edu/berkeley-carbon-trading-project/offsets-database"}, {"lat": 41.0124, "lon": -77.5443, "value": 23.8, "label": "CIG Pilot Project 1 - Nitrogen Management Credit Program (NMCP) Project — 0k issued / 0k retired · Nitrogen Management · United States", "name": "CIG Pilot Project 1 - Nitrogen Management Credit Program (NMCP) Project", "description": "Nitrogen Management", "url": "https://gspp.berkeley.edu/berkeley-carbon-trading-project/offsets-database"}, {"lat": 41.7037, "lon": -77.0772, "value": 69.7, "label": "Re-Refining of Used Transformer Oil — 260k issued / 119k retired · Oil Recycling · United States", "name": "Re-Refining of Used Transformer Oil", "description": "Oil Recycling", "url": "https://gspp.berkeley.edu/berkeley-carbon-trading-project/offsets-database"}, {"lat": 41.4079, "lon": -76.9792, "value": 66.2, "label": "Tradewater ODS 7 — 139k issued / 139k retired · Ozone Depleting Substances Recovery & Destruction · United States", "name": "Tradewater ODS 7", "description": "Ozone Depleting Substances Recovery & Destruction", "url": "https://gspp.berkeley.edu/berkeley-carbon-trading-project/offsets-database"}, {"lat": 37.9631, "lon": -75.085, "value": 66.2, "label": "Tradewater ODS 8 — 138k issued / 138k retired · Ozone Depleting Substances Recovery & Destruction · United States", "name": "Tradewater ODS 8", "description": "Ozone Depleting Substances Recovery & Destruction", "url": "https://gspp.berkeley.edu/berkeley-carbon-trading-project/offsets-database"}, {"lat": 40.973, "lon": -74.6807, "value": 69.0, "label": "Hudson Farm Forestry Project — 230k issued / 177k retired · Improved Forest Management · United States", "name": "Hudson Farm Forestry Project", "description": "Improved Forest Management", "url": "https://gspp.berkeley.edu/berkeley-carbon-trading-project/offsets-database"}, {"lat": 38.3188, "lon": -73.3689, "value": 65.8, "label": "Tradewater ODS 9 — 130k issued / 130k retired · Ozone Depleting Substances Recovery & Destruction · United States", "name": "Tradewater ODS 9", "description": "Ozone Depleting Substances Recovery & Destruction", "url": "https://gspp.berkeley.edu/berkeley-carbon-trading-project/offsets-database"}, {"lat": 37.5174, "lon": -77.7062, "value": 78.2, "label": "Corinth Abandoned Mine Methane Recovery Project — 1,186k issued / 904k retired · Mine Methane Capture · United States", "name": "Corinth Abandoned Mine Methane Recovery Project", "description": "Mine Methane Capture", "url": "https://gspp.berkeley.edu/berkeley-carbon-trading-project/offsets-database"}, {"lat": 46.4601, "lon": -122.3969, "value": 75.9, "label": "Winston Creek Forest Carbon Project — 781k issued / 686k retired · Improved Forest Management · United States", "name": "Winston Creek Forest Carbon Project", "description": "Improved Forest Management", "url": "https://gspp.berkeley.edu/berkeley-carbon-trading-project/offsets-database"}, {"lat": 36.8813, "lon": -76.7808, "value": 60.3, "label": "Clean Fuel Partners Dane County Biodigester — 48k issued / 48k retired · Manure Methane Digester · United States", "name": "Clean Fuel Partners Dane County Biodigester", "description": "Manure Methane Digester", "url": "https://gspp.berkeley.edu/berkeley-carbon-trading-project/offsets-database"}, {"lat": 40.487, "lon": -75.7206, "value": 66.3, "label": "Blue Source - Wilderness Lakes Improved Forest Management Project — 142k issued / 142k retired · Improved Forest Management · United States", "name": "Blue Source - Wilderness Lakes Improved Forest Management Project", "description": "Improved Forest Management", "url": "https://gspp.berkeley.edu/berkeley-carbon-trading-project/offsets-database"}, {"lat": 41.129, "lon": -75.1818, "value": 60.4, "label": "Hiawatha Club Carbon Project — 49k issued / 46k retired · Improved Forest Management · United States", "name": "Hiawatha Club Carbon Project", "description": "Improved Forest Management", "url": "https://gspp.berkeley.edu/berkeley-carbon-trading-project/offsets-database"}, {"lat": 41.4923, "lon": -75.1687, "value": 76.3, "label": "Finite Carbon - MWF Ned Lake IFM — 837k issued / 808k retired · Improved Forest Management · United States", "name": "Finite Carbon - MWF Ned Lake IFM", "description": "Improved Forest Management", "url": "https://gspp.berkeley.edu/berkeley-carbon-trading-project/offsets-database"}, {"lat": 36.442, "lon": -81.851, "value": 74.7, "label": "Anew - Doe Mountain Forestry Project — 630k issued / 506k retired · Improved Forest Management · United States", "name": "Anew - Doe Mountain Forestry Project", "description": "Improved Forest Management", "url": "https://gspp.berkeley.edu/berkeley-carbon-trading-project/offsets-database"}, {"lat": 36.7271, "lon": -74.9021, "value": 66.1, "label": "Tradewater ODS 10 — 137k issued / 137k retired · Ozone Depleting Substances Recovery & Destruction · United States", "name": "Tradewater ODS 10", "description": "Ozone Depleting Substances Recovery & Destruction", "url": "https://gspp.berkeley.edu/berkeley-carbon-trading-project/offsets-database"}, {"lat": 35.8635, "lon": -78.3353, "value": 66.2, "label": "Bluesource GCS Bear Canyon — 140k issued / 139k retired · Mine Methane Capture · United States", "name": "Bluesource GCS Bear Canyon", "description": "Mine Methane Capture", "url": "https://gspp.berkeley.edu/berkeley-carbon-trading-project/offsets-database"}, {"lat": 41.5804, "lon": -77.034, "value": 65.3, "label": "Tradewater ODS 11 — 118k issued / 118k retired · Ozone Depleting Substances Recovery & Destruction · United States", "name": "Tradewater ODS 11", "description": "Ozone Depleting Substances Recovery & Destruction", "url": "https://gspp.berkeley.edu/berkeley-carbon-trading-project/offsets-database"}, {"lat": 36.1901, "lon": -75.2539, "value": 78.9, "label": "BMMC1 — 1,333k issued / 1,026k retired · Mine Methane Capture · United States", "name": "BMMC1", "description": "Mine Methane Capture", "url": "https://gspp.berkeley.edu/berkeley-carbon-trading-project/offsets-database"}, {"lat": 40.7122, "lon": -79.3174, "value": 52.2, "label": "Castelanelli Bros Dairy Digester — 11k issued / 11k retired · Manure Methane Digester · United States", "name": "Castelanelli Bros Dairy Digester", "description": "Manure Methane Digester", "url": "https://gspp.berkeley.edu/berkeley-carbon-trading-project/offsets-database"}, {"lat": 37.24, "lon": -78.8881, "value": 60.8, "label": "Restoring Wetlands on California Department of Water Resources-Owned Areas of Twitchell and Sherman Islands — 52k issued / 0k retired · Wetland Restoration · United States", "name": "Restoring Wetlands on California Department of Water Resources-Owned Areas of Twitchell and Sherman Islands", "description": "Wetland Restoration", "url": "https://gspp.berkeley.edu/berkeley-carbon-trading-project/offsets-database"}, {"lat": 40.1884, "lon": -76.3803, "value": 71.4, "label": "Steuben County Bath Landfill GHG Offset Project — 349k issued / 272k retired · Landfill Methane · United States", "name": "Steuben County Bath Landfill GHG Offset Project", "description": "Landfill Methane", "url": "https://gspp.berkeley.edu/berkeley-carbon-trading-project/offsets-database"}, {"lat": 40.0248, "lon": -76.9508, "value": 77.7, "label": "Finite Carbon - Tyonek Native Alaskan IFM — 1,074k issued / 936k retired · Improved Forest Management · United States", "name": "Finite Carbon - Tyonek Native Alaskan IFM", "description": "Improved Forest Management", "url": "https://gspp.berkeley.edu/berkeley-carbon-trading-project/offsets-database"}, {"lat": 38.3285, "lon": -77.8787, "value": 83.9, "label": "Finite Carbon - Meriwether IFM — 3,262k issued / 3,110k retired · Improved Forest Management · United States", "name": "Finite Carbon - Meriwether IFM", "description": "Improved Forest Management", "url": "https://gspp.berkeley.edu/berkeley-carbon-trading-project/offsets-database"}, {"lat": 41.4133, "lon": -79.1684, "value": 76.7, "label": "Bluesource - Baskahegan Improved Forest Management Project — 912k issued / 871k retired · Improved Forest Management · United States", "name": "Bluesource - Baskahegan Improved Forest Management Project", "description": "Improved Forest Management", "url": "https://gspp.berkeley.edu/berkeley-carbon-trading-project/offsets-database"}, {"lat": 38.5595, "lon": -78.7137, "value": 59.8, "label": "WMMC1 — 44k issued / 38k retired · Mine Methane Capture · United States", "name": "WMMC1", "description": "Mine Methane Capture", "url": "https://gspp.berkeley.edu/berkeley-carbon-trading-project/offsets-database"}, {"lat": 41.2094, "lon": -76.6914, "value": 65.9, "label": "Tradewater ODS 12 — 132k issued / 70k retired · Ozone Depleting Substances Recovery & Destruction · United States", "name": "Tradewater ODS 12", "description": "Ozone Depleting Substances Recovery & Destruction", "url": "https://gspp.berkeley.edu/berkeley-carbon-trading-project/offsets-database"}, {"lat": 37.6503, "lon": -75.0889, "value": 81.5, "label": "Finite Carbon - Sealaska 2 Native Alaskan IFM — 2,153k issued / 2,334k retired · Improved Forest Management · United States", "name": "Finite Carbon - Sealaska 2 Native Alaskan IFM", "description": "Improved Forest Management", "url": "https://gspp.berkeley.edu/berkeley-carbon-trading-project/offsets-database"}, {"lat": 39.88, "lon": -101.52, "value": 67.7, "label": "Wabassus Improved Forest Management Project — 182k issued / 66k retired · Improved Forest Management · United States", "name": "Wabassus Improved Forest Management Project", "description": "Improved Forest Management", "url": "https://gspp.berkeley.edu/berkeley-carbon-trading-project/offsets-database"}, {"lat": 40.051, "lon": -76.8122, "value": 56.2, "label": "Forest Carbon Works Stewart Family Forest Project — 23k issued / 23k retired · Improved Forest Management · United States", "name": "Forest Carbon Works Stewart Family Forest Project", "description": "Improved Forest Management", "url": "https://gspp.berkeley.edu/berkeley-carbon-trading-project/offsets-database"}, {"lat": 42.4831, "lon": -73.9392, "value": 68.5, "label": "Albany Water Board - Improved Forest Management Project — 210k issued / 152k retired · Improved Forest Management · United States", "name": "Albany Water Board - Improved Forest Management Project", "description": "Improved Forest Management", "url": "https://gspp.berkeley.edu/berkeley-carbon-trading-project/offsets-database"}, {"lat": 35.8023, "lon": -76.7394, "value": 72.0, "label": "Bluesource - Goldbelt Improved Forest Management Project — 394k issued / 425k retired · Improved Forest Management · United States", "name": "Bluesource - Goldbelt Improved Forest Management Project", "description": "Improved Forest Management", "url": "https://gspp.berkeley.edu/berkeley-carbon-trading-project/offsets-database"}, {"lat": 40.6014, "lon": -73.5727, "value": 66.3, "label": "Tradewater ODS 13 — 140k issued / 109k retired · Ozone Depleting Substances Recovery & Destruction · United States", "name": "Tradewater ODS 13", "description": "Ozone Depleting Substances Recovery & Destruction", "url": "https://gspp.berkeley.edu/berkeley-carbon-trading-project/offsets-database"}, {"lat": 36.8467, "lon": -78.9342, "value": 79.7, "label": "The Nature Conservancy - Upper St. John Forest IFM Project — 1,550k issued / 1,538k retired · Improved Forest Management · United States", "name": "The Nature Conservancy - Upper St. John Forest IFM Project", "description": "Improved Forest Management", "url": "https://gspp.berkeley.edu/berkeley-carbon-trading-project/offsets-database"}, {"lat": 37.6536, "lon": -80.4669, "value": 76.9, "label": "Finite Carbon - Huna Totem Native Alaskan IFM — 939k issued / 939k retired · Improved Forest Management · United States", "name": "Finite Carbon - Huna Totem Native Alaskan IFM", "description": "Improved Forest Management", "url": "https://gspp.berkeley.edu/berkeley-carbon-trading-project/offsets-database"}, {"lat": 37.7918, "lon": -79.8307, "value": 66.3, "label": "Tradewater ODS 14 — 141k issued / 141k retired · Ozone Depleting Substances Recovery & Destruction · United States", "name": "Tradewater ODS 14", "description": "Ozone Depleting Substances Recovery & Destruction", "url": "https://gspp.berkeley.edu/berkeley-carbon-trading-project/offsets-database"}, {"lat": 38.0009, "lon": -77.4417, "value": 60.8, "label": "Tradewater ODS 15 — 52k issued / 0k retired · Ozone Depleting Substances Recovery & Destruction · United States", "name": "Tradewater ODS 15", "description": "Ozone Depleting Substances Recovery & Destruction", "url": "https://gspp.berkeley.edu/berkeley-carbon-trading-project/offsets-database"}, {"lat": 39.2738, "lon": -75.5009, "value": 55.9, "label": "Hudson Tech 2018-1 — 22k issued / 22k retired · Ozone Depleting Substances Recovery & Destruction · United States", "name": "Hudson Tech 2018-1", "description": "Ozone Depleting Substances Recovery & Destruction", "url": "https://gspp.berkeley.edu/berkeley-carbon-trading-project/offsets-database"}, {"lat": 39.6942, "lon": -80.0802, "value": 66.6, "label": "Tradewater ODS 16 — 149k issued / 101k retired · Ozone Depleting Substances Recovery & Destruction · United States", "name": "Tradewater ODS 16", "description": "Ozone Depleting Substances Recovery & Destruction", "url": "https://gspp.berkeley.edu/berkeley-carbon-trading-project/offsets-database"}, {"lat": 38.7002, "lon": -73.7623, "value": 64.7, "label": "Tradewater ODS 17 — 105k issued / 105k retired · Ozone Depleting Substances Recovery & Destruction · United States", "name": "Tradewater ODS 17", "description": "Ozone Depleting Substances Recovery & Destruction", "url": "https://gspp.berkeley.edu/berkeley-carbon-trading-project/offsets-database"}, {"lat": 40.1442, "lon": -80.3759, "value": 64.2, "label": "Tradewater ODS 18 — 96k issued / 96k retired · Ozone Depleting Substances Recovery & Destruction · United States", "name": "Tradewater ODS 18", "description": "Ozone Depleting Substances Recovery & Destruction", "url": "https://gspp.berkeley.edu/berkeley-carbon-trading-project/offsets-database"}, {"lat": 39.9005, "lon": -75.2983, "value": 87.8, "label": "Bluesource - Cumberland Mountains Improved Forest Management Project — 6,606k issued / 5,598k retired · Improved Forest Management · United States", "name": "Bluesource - Cumberland Mountains Improved Forest Management Project", "description": "Improved Forest Management", "url": "https://gspp.berkeley.edu/berkeley-carbon-trading-project/offsets-database"}, {"lat": 39.2738, "lon": -79.4631, "value": 75.1, "label": "Bluesource – Edge of Appalachia Improved Forest Management Project — 683k issued / 624k retired · Improved Forest Management · United States", "name": "Bluesource – Edge of Appalachia Improved Forest Management Project", "description": "Improved Forest Management", "url": "https://gspp.berkeley.edu/berkeley-carbon-trading-project/offsets-database"}, {"lat": 41.7932, "lon": -91.8982, "value": 65.7, "label": "Whirlpool HFO Amana 440 — 128k issued / 128k retired · HFC Replacement in Foam Production · United States", "name": "Whirlpool HFO Amana 440", "description": "HFC Replacement in Foam Production", "url": "https://gspp.berkeley.edu/berkeley-carbon-trading-project/offsets-database"}, {"lat": 35.8647, "lon": -85.3241, "value": 71.9, "label": "TNC-Chestnut Mountain Improved Forest Management Project — 381k issued / 280k retired · Improved Forest Management · United States", "name": "TNC-Chestnut Mountain Improved Forest Management Project", "description": "Improved Forest Management", "url": "https://gspp.berkeley.edu/berkeley-carbon-trading-project/offsets-database"}, {"lat": 38.2101, "lon": -74.1, "value": 65.1, "label": "Coolgas 2019-2 — 114k issued / 2k retired · Ozone Depleting Substances Recovery & Destruction · United States", "name": "Coolgas 2019-2", "description": "Ozone Depleting Substances Recovery & Destruction", "url": "https://gspp.berkeley.edu/berkeley-carbon-trading-project/offsets-database"}, {"lat": 39.9185, "lon": -80.063, "value": 65.2, "label": "A-Gas 2019-3 — 115k issued / 115k retired · Ozone Depleting Substances Recovery & Destruction · United States", "name": "A-Gas 2019-3", "description": "Ozone Depleting Substances Recovery & Destruction", "url": "https://gspp.berkeley.edu/berkeley-carbon-trading-project/offsets-database"}, {"lat": 36.9623, "lon": -75.338, "value": 63.7, "label": "A-Gas 2019-4 — 88k issued / 88k retired · Ozone Depleting Substances Recovery & Destruction · United States", "name": "A-Gas 2019-4", "description": "Ozone Depleting Substances Recovery & Destruction", "url": "https://gspp.berkeley.edu/berkeley-carbon-trading-project/offsets-database"}, {"lat": 41.7146, "lon": -77.1322, "value": 60.9, "label": "Hudson Tech 2019-1 — 54k issued / 54k retired · Ozone Depleting Substances Recovery & Destruction · United States", "name": "Hudson Tech 2019-1", "description": "Ozone Depleting Substances Recovery & Destruction", "url": "https://gspp.berkeley.edu/berkeley-carbon-trading-project/offsets-database"}, {"lat": 38.7569, "lon": -90.4518, "value": 61.8, "label": "Foam Blowing Agent Project 001B — 63k issued / 63k retired · HFC Replacement in Foam Production · United States", "name": "Foam Blowing Agent Project 001B", "description": "HFC Replacement in Foam Production", "url": "https://gspp.berkeley.edu/berkeley-carbon-trading-project/offsets-database"}, {"lat": 33.0597, "lon": -96.9936, "value": 64.0, "label": "Foam Blowing Agent Project 001C — 93k issued / 53k retired · HFC Replacement in Foam Production · United States", "name": "Foam Blowing Agent Project 001C", "description": "HFC Replacement in Foam Production", "url": "https://gspp.berkeley.edu/berkeley-carbon-trading-project/offsets-database"}, {"lat": 38.7569, "lon": -90.4518, "value": 63.5, "label": "Foam Blowing Agent Project 001D — 86k issued / 86k retired · HFC Replacement in Foam Production · United States", "name": "Foam Blowing Agent Project 001D", "description": "HFC Replacement in Foam Production", "url": "https://gspp.berkeley.edu/berkeley-carbon-trading-project/offsets-database"}, {"lat": 45.0873, "lon": -93.7415, "value": 65.0, "label": "Foam Blowing Agent Project 002D — 111k issued / 49k retired · HFC Replacement in Foam Production · United States", "name": "Foam Blowing Agent Project 002D", "description": "HFC Replacement in Foam Production", "url": "https://gspp.berkeley.edu/berkeley-carbon-trading-project/offsets-database"}, {"lat": 45.0873, "lon": -93.7415, "value": 64.9, "label": "Foam Blowing Agent Project 002C — 110k issued / 110k retired · HFC Replacement in Foam Production · United States", "name": "Foam Blowing Agent Project 002C", "description": "HFC Replacement in Foam Production", "url": "https://gspp.berkeley.edu/berkeley-carbon-trading-project/offsets-database"}, {"lat": 45.0873, "lon": -93.7415, "value": 64.7, "label": "Foam Blowing Agent Project 002B — 106k issued / 106k retired · HFC Replacement in Foam Production · United States", "name": "Foam Blowing Agent Project 002B", "description": "HFC Replacement in Foam Production", "url": "https://gspp.berkeley.edu/berkeley-carbon-trading-project/offsets-database"}, {"lat": 39.2128, "lon": -78.1405, "value": 70.4, "label": "Foam Blowing Agent Project 003C — 292k issued / 99k retired · HFC Replacement in Foam Production · United States", "name": "Foam Blowing Agent Project 003C", "description": "HFC Replacement in Foam Production", "url": "https://gspp.berkeley.edu/berkeley-carbon-trading-project/offsets-database"}, {"lat": 39.2128, "lon": -78.1405, "value": 73.6, "label": "Foam Blowing Agent Project 003D — 520k issued / 64k retired · HFC Replacement in Foam Production · United States", "name": "Foam Blowing Agent Project 003D", "description": "HFC Replacement in Foam Production", "url": "https://gspp.berkeley.edu/berkeley-carbon-trading-project/offsets-database"}, {"lat": 39.88, "lon": -101.52, "value": 60.1, "label": "Foam Blowing Agent Project 001E — 47k issued / 47k retired · HFC Replacement in Foam Production · United States", "name": "Foam Blowing Agent Project 001E", "description": "HFC Replacement in Foam Production", "url": "https://gspp.berkeley.edu/berkeley-carbon-trading-project/offsets-database"}, {"lat": 41.106, "lon": -77.4387, "value": 71.0, "label": "Bluesource - Haida Improved Forest Management Project — 324k issued / 324k retired · Improved Forest Management · United States", "name": "Bluesource - Haida Improved Forest Management Project", "description": "Improved Forest Management", "url": "https://gspp.berkeley.edu/berkeley-carbon-trading-project/offsets-database"}, {"lat": 55.5387, "lon": -133.071, "value": 72.8, "label": "Anew - Klawock Heenya Native Community Forestry Project — 451k issued / 220k retired · Improved Forest Management · United States", "name": "Anew - Klawock Heenya Native Community Forestry Project", "description": "Improved Forest Management", "url": "https://gspp.berkeley.edu/berkeley-carbon-trading-project/offsets-database"}, {"lat": 39.9271, "lon": -75.828, "value": 63.5, "label": "Tradewater ODS 19 — 85k issued / 77k retired · Ozone Depleting Substances Recovery & Destruction · United States", "name": "Tradewater ODS 19", "description": "Ozone Depleting Substances Recovery & Destruction", "url": "https://gspp.berkeley.edu/berkeley-carbon-trading-project/offsets-database"}, {"lat": 39.88, "lon": -101.52, "value": 61.6, "label": "Foam Blowing Agent Project 001F — 61k issued / 61k retired · HFC Replacement in Foam Production · United States", "name": "Foam Blowing Agent Project 001F", "description": "HFC Replacement in Foam Production", "url": "https://gspp.berkeley.edu/berkeley-carbon-trading-project/offsets-database"}, {"lat": 39.88, "lon": -101.52, "value": 61.9, "label": "Foam Blowing Agent Project 001G — 64k issued / 63k retired · HFC Replacement in Foam Production · United States", "name": "Foam Blowing Agent Project 001G", "description": "HFC Replacement in Foam Production", "url": "https://gspp.berkeley.edu/berkeley-carbon-trading-project/offsets-database"}, {"lat": 39.88, "lon": -101.52, "value": 62.1, "label": "Foam Blowing Agent Project 001H — 66k issued / 66k retired · HFC Replacement in Foam Production · United States", "name": "Foam Blowing Agent Project 001H", "description": "HFC Replacement in Foam Production", "url": "https://gspp.berkeley.edu/berkeley-carbon-trading-project/offsets-database"}, {"lat": 39.88, "lon": -101.52, "value": 62.1, "label": "Foam Blowing Agent Project 001I — 67k issued / 67k retired · HFC Replacement in Foam Production · United States", "name": "Foam Blowing Agent Project 001I", "description": "HFC Replacement in Foam Production", "url": "https://gspp.berkeley.edu/berkeley-carbon-trading-project/offsets-database"}, {"lat": 39.88, "lon": -101.52, "value": 62.3, "label": "Foam Blowing Agent Project 001J — 69k issued / 69k retired · HFC Replacement in Foam Production · United States", "name": "Foam Blowing Agent Project 001J", "description": "HFC Replacement in Foam Production", "url": "https://gspp.berkeley.edu/berkeley-carbon-trading-project/offsets-database"}, {"lat": 37.8332, "lon": -79.4711, "value": 58.9, "label": "WTE Digester — 37k issued / 37k retired · Manure Methane Digester · United States", "name": "WTE Digester", "description": "Manure Methane Digester", "url": "https://gspp.berkeley.edu/berkeley-carbon-trading-project/offsets-database"}, {"lat": 37.4689, "lon": -74.087, "value": 63.3, "label": "Tradewater ODS 20 — 83k issued / 80k retired · Ozone Depleting Substances Recovery & Destruction · United States", "name": "Tradewater ODS 20", "description": "Ozone Depleting Substances Recovery & Destruction", "url": "https://gspp.berkeley.edu/berkeley-carbon-trading-project/offsets-database"}, {"lat": 37.4741, "lon": -78.1465, "value": 59.9, "label": "Hudson Tech 2019-2 — 45k issued / 45k retired · Ozone Depleting Substances Recovery & Destruction · United States", "name": "Hudson Tech 2019-2", "description": "Ozone Depleting Substances Recovery & Destruction", "url": "https://gspp.berkeley.edu/berkeley-carbon-trading-project/offsets-database"}, {"lat": 40.0252, "lon": -77.9138, "value": 62.8, "label": "PERENNIAL CN9-1 AMM FLARE PROJECT — 76k issued / 59k retired · Mine Methane Capture · United States", "name": "PERENNIAL CN9-1 AMM FLARE PROJECT", "description": "Mine Methane Capture", "url": "https://gspp.berkeley.edu/berkeley-carbon-trading-project/offsets-database"}, {"lat": 38.5492, "lon": -80.1788, "value": 58.6, "label": "Tradewater ODS 21 — 36k issued / 36k retired · Ozone Depleting Substances Recovery & Destruction · United States", "name": "Tradewater ODS 21", "description": "Ozone Depleting Substances Recovery & Destruction", "url": "https://gspp.berkeley.edu/berkeley-carbon-trading-project/offsets-database"}, {"lat": 37.9706, "lon": -79.6488, "value": 63.4, "label": "Tradewater ODS 22 — 84k issued / 34k retired · Ozone Depleting Substances Recovery & Destruction · United States", "name": "Tradewater ODS 22", "description": "Ozone Depleting Substances Recovery & Destruction", "url": "https://gspp.berkeley.edu/berkeley-carbon-trading-project/offsets-database"}, {"lat": 36.1719, "lon": -78.6101, "value": 65.6, "label": "A-Gas 2019-5 — 125k issued / 125k retired · Ozone Depleting Substances Recovery & Destruction · United States", "name": "A-Gas 2019-5", "description": "Ozone Depleting Substances Recovery & Destruction", "url": "https://gspp.berkeley.edu/berkeley-carbon-trading-project/offsets-database"}, {"lat": 38.1414, "lon": -80.3311, "value": 66.6, "label": "A-Gas 2019-6 — 150k issued / 150k retired · Ozone Depleting Substances Recovery & Destruction · United States", "name": "A-Gas 2019-6", "description": "Ozone Depleting Substances Recovery & Destruction", "url": "https://gspp.berkeley.edu/berkeley-carbon-trading-project/offsets-database"}, {"lat": 36.0107, "lon": -75.9609, "value": 63.9, "label": "A-Gas 2019-7 — 91k issued / 90k retired · Ozone Depleting Substances Recovery & Destruction · United States", "name": "A-Gas 2019-7", "description": "Ozone Depleting Substances Recovery & Destruction", "url": "https://gspp.berkeley.edu/berkeley-carbon-trading-project/offsets-database"}, {"lat": 39.88, "lon": -101.52, "value": 68.2, "label": "Advanced Refrigeration US49 - ARS 001 — 200k issued / 5k retired · Advanced Refrigerants · United States", "name": "Advanced Refrigeration US49 - ARS 001", "description": "Advanced Refrigerants", "url": "https://gspp.berkeley.edu/berkeley-carbon-trading-project/offsets-database"}, {"lat": 39.88, "lon": -101.52, "value": 71.0, "label": "Advanced Refrigeration US49 - ARS 002 — 324k issued / 231k retired · Advanced Refrigerants · United States", "name": "Advanced Refrigeration US49 - ARS 002", "description": "Advanced Refrigerants", "url": "https://gspp.berkeley.edu/berkeley-carbon-trading-project/offsets-database"}, {"lat": 39.88, "lon": -101.52, "value": 71.7, "label": "Advanced Refrigeration US49 - ARS 003 — 371k issued / 248k retired · Advanced Refrigerants · United States", "name": "Advanced Refrigeration US49 - ARS 003", "description": "Advanced Refrigerants", "url": "https://gspp.berkeley.edu/berkeley-carbon-trading-project/offsets-database"}, {"lat": 36.6051, "lon": -79.7504, "value": 64.4, "label": "Tradewater ODS 23 — 101k issued / 30k retired · Ozone Depleting Substances Recovery & Destruction · United States", "name": "Tradewater ODS 23", "description": "Ozone Depleting Substances Recovery & Destruction", "url": "https://gspp.berkeley.edu/berkeley-carbon-trading-project/offsets-database"}, {"lat": 39.0053, "lon": -79.8864, "value": 67.8, "label": "Lower Green Swamp Preserve — 186k issued / 104k retired · Improved Forest Management · United States", "name": "Lower Green Swamp Preserve", "description": "Improved Forest Management", "url": "https://gspp.berkeley.edu/berkeley-carbon-trading-project/offsets-database"}, {"lat": 41.7932, "lon": -91.8982, "value": 65.6, "label": "Whirlpool HFO Amana 485 — 125k issued / 16k retired · HFC Replacement in Foam Production · United States", "name": "Whirlpool HFO Amana 485", "description": "HFC Replacement in Foam Production", "url": "https://gspp.berkeley.edu/berkeley-carbon-trading-project/offsets-database"}, {"lat": 41.7932, "lon": -91.8982, "value": 65.4, "label": "Whirlpool HFO Amana 486 — 119k issued / 0k retired · HFC Replacement in Foam Production · United States", "name": "Whirlpool HFO Amana 486", "description": "HFC Replacement in Foam Production", "url": "https://gspp.berkeley.edu/berkeley-carbon-trading-project/offsets-database"}, {"lat": 41.7932, "lon": -91.8982, "value": 62.1, "label": "Whirlpool HFO Amana 487 — 67k issued / 0k retired · HFC Replacement in Foam Production · United States", "name": "Whirlpool HFO Amana 487", "description": "HFC Replacement in Foam Production", "url": "https://gspp.berkeley.edu/berkeley-carbon-trading-project/offsets-database"}, {"lat": 38.2997, "lon": -80.9688, "value": 63.4, "label": "Tradewater ODS 24 — 83k issued / 83k retired · Ozone Depleting Substances Recovery & Destruction · United States", "name": "Tradewater ODS 24", "description": "Ozone Depleting Substances Recovery & Destruction", "url": "https://gspp.berkeley.edu/berkeley-carbon-trading-project/offsets-database"}, {"lat": 55.76, "lon": -100.18, "value": 56.6, "label": "HFC Emissions Reduction in Spray Foam by Replacement of HFC-245fa Blowing Agent with Solstice LBA® (HFO-1233zd(E)) 2016 — 25k issued / 25k retired · HFC Replacement in Foam Production · Canada", "name": "HFC Emissions Reduction in Spray Foam by Replacement of HFC-245fa Blowing Agent with Solstice LBA® (HFO-1233zd(E)) 2016", "description": "HFC Replacement in Foam Production", "url": "https://gspp.berkeley.edu/berkeley-carbon-trading-project/offsets-database"}, {"lat": 36.3486, "lon": -77.3884, "value": 63.5, "label": "Tradewater ODS 25 — 85k issued / 85k retired · Ozone Depleting Substances Recovery & Destruction · United States", "name": "Tradewater ODS 25", "description": "Ozone Depleting Substances Recovery & Destruction", "url": "https://gspp.berkeley.edu/berkeley-carbon-trading-project/offsets-database"}, {"lat": 38.4053, "lon": -79.6717, "value": 72.5, "label": "Marshall County Flare I — 430k issued / 230k retired · Mine Methane Capture · United States", "name": "Marshall County Flare I", "description": "Mine Methane Capture", "url": "https://gspp.berkeley.edu/berkeley-carbon-trading-project/offsets-database"},