{"meta": {"schema": "earth.pointset.v1", "kind": "datacenters", "source": "PeeringDB facilities + curated announced builds", "attribution": "Generated by tooling/scripts/build_earth_pointsets.py from the Earth impact-players workbooks. Clustered for rendering; see Sources & Method. Source: PeeringDB (CC-BY).", "label": "Datacenters (PeeringDB + planned)", "disclosure": "Exact facility coordinates; metros clustered. Includes a small curated set of announced/under-construction sites.", "units": "networks", "palette": "cyan", "domain": "land", "valueMin": 0, "valueMax": 100, "vintage": "impact-2026-06-24", "isLive": false, "liveReady": false, "clusters": 3500, "records": 5270, "count": 3500}, "points": [{"lat": -6.238, "lon": 106.824, "value": 100.0, "count": 1, "label": "Datacenter APJII-Cyber · Asosiasi Penyelenggara Jasa Internet Indonesia · Jakarta Selatan", "name": "Datacenter APJII-Cyber", "description": "Asosiasi Penyelenggara Jasa Internet Indonesia · Jakarta Selatan", "url": "https://www.iix.net.id"}, {"lat": -6.254, "lon": 106.833, "value": 95.1, "count": 1, "label": "IDC 3D · PT. Internetindo Data Centra Indonesia · Jakarta Selatan", "name": "IDC 3D", "description": "PT. Internetindo Data Centra Indonesia · Jakarta Selatan", "url": "http://www.idc.co.id/"}, {"lat": -6.238, "lon": 106.823, "value": 83.4, "count": 1, "label": "NTT Jakarta 2 Data Center (JKT2) · NTT DATA's Global Data Centers division · Jakarta", "name": "NTT Jakarta 2 Data Center (JKT2)", "description": "NTT DATA's Global Data Centers division · Jakarta", "url": "https://services.global.ntt/en-us/services-and-products/global-data-centers/global-locations/asia-pacific/jakarta-2-data-center"}, {"lat": -6.239, "lon": 106.824, "value": 73.0, "count": 1, "label": "Cyber Data Center International Jakarta · Cyber Data Center International · Jakarta Selatan", "name": "Cyber Data Center International Jakarta", "description": "Cyber Data Center International · Jakarta Selatan", "url": "http://www.cyberdc.net"}, {"lat": -6.203, "lon": 106.816, "value": 70.7, "count": 1, "label": "neuCentrIX - Karet Tengsin · PT Telekomunikasi Indonesia Int · Jakarta Pusat", "name": "neuCentrIX - Karet Tengsin", "description": "PT Telekomunikasi Indonesia Int · Jakarta Pusat", "url": "https://www.neucentrix.co.id/"}, {"lat": -6.239, "lon": 106.825, "value": 70.4, "count": 1, "label": "ProDC · PT SOLUSI DATA CEPAT · Jakarta Selatan", "name": "ProDC", "description": "PT SOLUSI DATA CEPAT · Jakarta Selatan", "url": "https://prodc.id/"}, {"lat": -6.24, "lon": 106.824, "value": 67.9, "count": 1, "label": "NEX Datacenter (NEX-JK2) Jakarta · PT. CBN Nusantara (NEX Datacenter) · Jakarta Selatan", "name": "NEX Datacenter (NEX-JK2) Jakarta", "description": "PT. CBN Nusantara (NEX Datacenter) · Jakarta Selatan", "url": "http://www.nexdatacenter.com"}, {"lat": -6.239, "lon": 106.825, "value": 67.9, "count": 1, "label": "EDGE1 (EG1) - Digital Edge JKT1 - Jakarta · Digital Edge Indonesia · Jakarta Selatan", "name": "EDGE1 (EG1) - Digital Edge JKT1 - Jakarta", "description": "Digital Edge Indonesia · Jakarta Selatan", "url": "https://id.digitaledgedc.com/data-centers/edge1"}, {"lat": -6.235, "lon": 106.823, "value": 63.4, "count": 1, "label": "Equinix JK1 - Jakarta · Equinix, Inc. · Jakarta", "name": "Equinix JK1 - Jakarta", "description": "Equinix, Inc. · Jakarta", "url": "https://www.equinix.com/data-centers/asia-pacific-colocation/indonesia-colocation/jakarta-data-center/jk1"}, {"lat": -6.238, "lon": 106.824, "value": 63.2, "count": 1, "label": "Datacenter APJII-Cyber JAKARTA · PT Dexano Ryu Fusena · Jakarta", "name": "Datacenter APJII-Cyber JAKARTA", "description": "PT Dexano Ryu Fusena · Jakarta", "url": "https://www.iix.net.id/"}, {"lat": -6.243, "lon": 106.868, "value": 61.1, "count": 1, "label": "Digital Realty Bersama - CGK11 · Digital Realty Bersama · East Jakarta", "name": "Digital Realty Bersama - CGK11", "description": "Digital Realty Bersama · East Jakarta", "url": "https://digitalrealty-bersama.com"}, {"lat": -6.291, "lon": 106.786, "value": 58.1, "count": 1, "label": "BDx CGK3 - Jakarta TBS · BDx DC Services Limited · Jakarta", "name": "BDx CGK3 - Jakarta TBS", "description": "BDx DC Services Limited · Jakarta", "url": "https://www.bdxworld.com/"}, {"lat": 50.119, "lon": 8.735, "value": 97.9, "count": 1, "label": "Digital Realty Frankfurt FRA1-27 · Digital Realty · Frankfurt", "name": "Digital Realty Frankfurt FRA1-27", "description": "Digital Realty · Frankfurt", "url": "https://www.digitalrealty.com/data-centers/emea/frankfurt"}, {"lat": 50.099, "lon": 8.632, "value": 95.9, "count": 1, "label": "Equinix FR5 - Frankfurt, KleyerStrasse · Equinix, Inc. · Frankfurt", "name": "Equinix FR5 - Frankfurt, KleyerStrasse", "description": "Equinix, Inc. · Frankfurt", "url": "https://www.equinix.com/locations/germany-colocation/frankfurt-data-centers/fr5/"}, {"lat": 50.097, "lon": 8.644, "value": 76.3, "count": 1, "label": "Equinix FR7 - Frankfurt, Gutleutstrasse · Equinix, Inc. · Frankfurt", "name": "Equinix FR7 - Frankfurt, Gutleutstrasse", "description": "Equinix, Inc. · Frankfurt", "url": "https://www.equinix.com/locations/germany-colocation/frankfurt-data-centers/fr7/"}, {"lat": 50.128, "lon": 8.601, "value": 75.6, "count": 1, "label": "NTT Frankfurt 1 Data Center (FRA1) · NTT DATA's Global Data Centers division · Frankfurt", "name": "NTT Frankfurt 1 Data Center (FRA1)", "description": "NTT DATA's Global Data Centers division · Frankfurt", "url": "https://datacenter.hello.global.ntt/en/location/frankfurt/frankfurt-1-data-center"}, {"lat": 50.098, "lon": 8.588, "value": 70.5, "count": 1, "label": "Equinix FR4 - Frankfurt, West · Equinix, Inc. · Frankfurt", "name": "Equinix FR4 - Frankfurt, West", "description": "Equinix, Inc. · Frankfurt", "url": "https://www.equinix.com/locations/germany-colocation/frankfurt-data-centers/fr4/"}, {"lat": 50.097, "lon": 8.63, "value": 67.0, "count": 1, "label": "Telehouse - Frankfurt · Telehouse - Global Data Centers · Frankfurt", "name": "Telehouse - Frankfurt", "description": "Telehouse - Global Data Centers · Frankfurt", "url": "http://www.telehouse-rechenzentrum.de"}, {"lat": 50.1, "lon": 8.632, "value": 65.6, "count": 1, "label": "NewTelco Frankfurt · NewTelco GmbH · Frankfurt", "name": "NewTelco Frankfurt", "description": "NewTelco GmbH · Frankfurt", "url": "http://www.newtelco.de/en"}, {"lat": 50.14, "lon": 8.743, "value": 65.6, "count": 1, "label": "firstcolo - FRA4 · firstcolo GmbH · Frankfurt", "name": "firstcolo - FRA4", "description": "firstcolo GmbH · Frankfurt", "url": "https://firstcolo.net"}, {"lat": 50.142, "lon": 8.742, "value": 64.8, "count": 1, "label": "Equinix FR2 - Frankfurt, North · Equinix, Inc. · Frankfurt", "name": "Equinix FR2 - Frankfurt, North", "description": "Equinix, Inc. · Frankfurt", "url": "https://www.equinix.com/locations/germany-colocation/frankfurt-data-centers/fr2/"}, {"lat": 50.098, "lon": 8.588, "value": 63.7, "count": 1, "label": "Equinix FR6 - Frankfurt, West · Equinix, Inc. · Frankfurt", "name": "Equinix FR6 - Frankfurt, West", "description": "Equinix, Inc. · Frankfurt", "url": "https://www.equinix.com/locations/germany-colocation/frankfurt-data-centers/fr6/"}, {"lat": 50.1, "lon": 8.632, "value": 63.2, "count": 1, "label": "ITENOS Frankfurt (FRA1) · ITENOS GmbH · Frankfurt", "name": "ITENOS Frankfurt (FRA1)", "description": "ITENOS GmbH · Frankfurt", "url": "https://itenos.de/en/datacenter/data-center-germany/data-center-frankfurt-1/"}, {"lat": 50.122, "lon": 8.745, "value": 59.0, "count": 1, "label": "iNTERWERK Rechenzentrum · iNTERWERK · Frankfurt", "name": "iNTERWERK Rechenzentrum", "description": "iNTERWERK · Frankfurt", "url": "https://www.interwerk.de"}, {"lat": -23.498, "lon": -46.815, "value": 97.2, "count": 1, "label": "Equinix SP4 - São Paulo · Equinix, Inc. · Barueri", "name": "Equinix SP4 - São Paulo", "description": "Equinix, Inc. · Barueri", "url": "https://www.equinix.com/locations/americas-colocation/brazil-colocation/sao-paulo-data-centers/sp4/"}, {"lat": -23.503, "lon": -46.827, "value": 83.4, "count": 1, "label": "Equinix SP2 - São Paulo · Equinix, Inc. · Barueri", "name": "Equinix SP2 - São Paulo", "description": "Equinix, Inc. · Barueri", "url": "https://www.equinix.com/locations/americas-colocation/brazil-colocation/sao-paulo-data-centers/sp2/"}, {"lat": -23.598, "lon": -46.849, "value": 75.4, "count": 1, "label": "Cirion Sao Paulo - SAO1 · Cirion · Cotia", "name": "Cirion Sao Paulo - SAO1", "description": "Cirion · Cotia", "url": "https://ciriontechnologies.com"}, {"lat": -23.466, "lon": -46.863, "value": 74.7, "count": 1, "label": "Equinix SP3 - São Paulo · Equinix, Inc. · Santana de Parnaiba", "name": "Equinix SP3 - São Paulo", "description": "Equinix, Inc. · Santana de Parnaiba", "url": "https://www.equinix.com/locations/americas-colocation/brazil-colocation/sao-paulo-data-centers/sp3/"}, {"lat": -23.492, "lon": -46.777, "value": 70.2, "count": 1, "label": "Ascenty SPO02 - São Paulo · Ascenty DataCenters e Telecom · Osasco", "name": "Ascenty SPO02 - São Paulo", "description": "Ascenty DataCenters e Telecom · Osasco", "url": "https://www.ascenty.com/data-centers/sao-paulo-capital/sao-paulo-2/"}, {"lat": -23.546, "lon": -46.636, "value": 67.2, "count": 1, "label": "Equinix SP1 - São Paulo · Equinix, Inc. · São Paulo", "name": "Equinix SP1 - São Paulo", "description": "Equinix, Inc. · São Paulo", "url": "https://www.equinix.com/locations/americas-colocation/brazil-colocation/sao-paulo-data-centers/sp1/"}, {"lat": -23.492, "lon": -46.777, "value": 66.6, "count": 1, "label": "Ascenty SPO03 - São Paulo · Ascenty DataCenters e Telecom · Osasco", "name": "Ascenty SPO03 - São Paulo", "description": "Ascenty DataCenters e Telecom · Osasco", "url": "https://www.ascenty.com/data-centers/sao-paulo-capital/sao-paulo-3/"}, {"lat": -23.491, "lon": -46.778, "value": 66.2, "count": 1, "label": "Ascenty SPO04  - São Paulo · Ascenty DataCenters e Telecom · Osasco", "name": "Ascenty SPO04  - São Paulo", "description": "Ascenty DataCenters e Telecom · Osasco", "url": "https://ascenty.com/data-centers/sao-paulo-capital/sao-paulo-4/"}, {"lat": -23.492, "lon": -46.777, "value": 57.0, "count": 1, "label": "Ascenty SPO01 - São Paulo · Ascenty DataCenters e Telecom · Osasco", "name": "Ascenty SPO01 - São Paulo", "description": "Ascenty DataCenters e Telecom · Osasco", "url": "https://www.ascenty.com/data-centers/sao-paulo-capital/sao-paulo-1/"}, {"lat": -23.62, "lon": -46.702, "value": 52.9, "count": 1, "label": "PIX Telium · Telium Telecomunicações Ltda · São Paulo", "name": "PIX Telium", "description": "Telium Telecomunicações Ltda · São Paulo", "url": "http://www.telium.com.br"}, {"lat": -23.647, "lon": -46.717, "value": 52.9, "count": 1, "label": "DC MATRIX INTERNET S.A · MATRIX INTERNET S.A. · São Paulo", "name": "DC MATRIX INTERNET S.A", "description": "MATRIX INTERNET S.A. · São Paulo", "url": "http://matrix.net.br"}, {"lat": 1.295, "lon": 103.79, "value": 95.5, "count": 1, "label": "Equinix SG1 - Singapore · Equinix, Inc. · Singapore", "name": "Equinix SG1 - Singapore", "description": "Equinix, Inc. · Singapore", "url": "https://www.equinix.com/locations/singapore-colocation/singapore-data-center/sg1/"}, {"lat": 1.296, "lon": 103.79, "value": 79.5, "count": 1, "label": "Equinix SG3 - Singapore · Equinix, Inc. · Singapore", "name": "Equinix SG3 - Singapore", "description": "Equinix, Inc. · Singapore", "url": "https://www.equinix.com/locations/singapore-colocation/singapore-data-center/sg3/"}, {"lat": 1.337, "lon": 103.894, "value": 75.3, "count": 1, "label": "Global Switch Singapore · Global Switch · Singapore", "name": "Global Switch Singapore", "description": "Global Switch · Singapore", "url": "http://www.globalswitch.com"}, {"lat": 1.321, "lon": 103.695, "value": 64.6, "count": 1, "label": "Equinix SG2 - Singapore · Equinix, Inc. · Singapore", "name": "Equinix SG2 - Singapore", "description": "Equinix, Inc. · Singapore", "url": "https://www.equinix.com/locations/singapore-colocation/singapore-data-center/sg2/"}, {"lat": 1.328, "lon": 103.746, "value": 49.7, "count": 1, "label": "Digital Realty Singapore SIN10 · Digital Realty · Singapore", "name": "Digital Realty Singapore SIN10", "description": "Digital Realty · Singapore", "url": "https://www.digitalrealty.com/"}, {"lat": 1.337, "lon": 103.893, "value": 49.1, "count": 1, "label": "Racks Central · NewMedia Express Pte Ltd · Singapore", "name": "Racks Central", "description": "NewMedia Express Pte Ltd · Singapore", "url": "http://www.rackscentral.com"}, {"lat": 1.352, "lon": 103.861, "value": 47.1, "count": 1, "label": "Epsilon Global Hubs Singapore · Epsilon · Singapore", "name": "Epsilon Global Hubs Singapore", "description": "Epsilon · Singapore", "url": "http://www.epsilontel.com/epsilon-telecommunications-products-and-services/colocation-global-hubs/"}, {"lat": 1.317, "lon": 103.702, "value": 45.7, "count": 1, "label": "Equinix SG5 - Singapore · Equinix, Inc. · Singapore", "name": "Equinix SG5 - Singapore", "description": "Equinix, Inc. · Singapore", "url": "https://www.equinix.com/data-centers/asia-pacific-colocation/singapore-colocation/singapore-data-center/sg5"}, {"lat": 1.295, "lon": 103.858, "value": 40.2, "count": 1, "label": "Nusantara Data Center - Batam · MoraRepublic · Batu Besar", "name": "Nusantara Data Center - Batam", "description": "MoraRepublic · Batu Besar", "url": "http://www.moratelindo.co.id"}, {"lat": 1.432, "lon": 103.599, "value": 40.2, "count": 1, "label": "Equinix JH1 - Johor · Equinix, Inc. · Iskandar Puteri", "name": "Equinix JH1 - Johor", "description": "Equinix, Inc. · Iskandar Puteri", "url": "https://www.equinix.com/data-centers/asia-pacific-colocation/malaysia-colocation/johor-data-center"}, {"lat": 39.016, "lon": -77.459, "value": 95.1, "count": 1, "label": "Equinix DC1-DC15,DC21-DC22 - Ashburn · Equinix, Inc. · Ashburn", "name": "Equinix DC1-DC15,DC21-DC22 - Ashburn", "description": "Equinix, Inc. · Ashburn", "url": "http://www.equinix.com/"}, {"lat": 39.016, "lon": -77.482, "value": 55.1, "count": 1, "label": "DataBank Ashburn (IAD1) · DataBank, Ltd. · Ashburn", "name": "DataBank Ashburn (IAD1)", "description": "DataBank, Ltd. · Ashburn", "url": "https://www.databank.com/data-centers/northern-virginia/ashburn-campus/ashburn/"}, {"lat": 39.023, "lon": -77.455, "value": 49.7, "count": 1, "label": "RagingWire VA1 - NTT · RagingWire Data Centers - NTT · Ashburn", "name": "RagingWire VA1 - NTT", "description": "RagingWire Data Centers - NTT · Ashburn", "url": "http://www.ragingwire.com"}, {"lat": 39.002, "lon": -77.478, "value": 36.6, "count": 1, "label": "Digital Realty IAD (44100 Digital Loudoun) · Digital Realty · Ashburn", "name": "Digital Realty IAD (44100 Digital Loudoun)", "description": "Digital Realty · Ashburn", "url": "https://www.digitalrealty.com"}, {"lat": 39.022, "lon": -77.453, "value": 36.6, "count": 1, "label": "Centersquare Northern Virginia (IAD4) · Centersquare · Ashburn", "name": "Centersquare Northern Virginia (IAD4)", "description": "Centersquare · Ashburn", "url": "https://centersquaredc.com/data-centers/northern-virginia"}, {"lat": 39.018, "lon": -77.462, "value": 35.1, "count": 1, "label": "Digital Realty IAD (44480 Hastings) · Digital Realty · Ashburn", "name": "Digital Realty IAD (44480 Hastings)", "description": "Digital Realty · Ashburn", "url": "https://www.digitalrealty.com/"}, {"lat": 39.026, "lon": -77.414, "value": 35.1, "count": 1, "label": "CyrusOne Sterling · CyrusOne Inc. · Sterling", "name": "CyrusOne Sterling", "description": "CyrusOne Inc. · Sterling", "url": "http://www.cyrusone.com"}, {"lat": 39.004, "lon": -77.484, "value": 31.7, "count": 1, "label": "Digital Realty IAD (43830 Devin Shafron) · Digital Realty · Ashburn", "name": "Digital Realty IAD (43830 Devin Shafron)", "description": "Digital Realty · Ashburn", "url": "https://www.digitalrealty.com"}, {"lat": 39.02, "lon": -77.463, "value": 29.7, "count": 1, "label": "Digital Realty IAD (44521 Hastings) · Digital Realty · Ashburn", "name": "Digital Realty IAD (44521 Hastings)", "description": "Digital Realty · Ashburn", "url": "https://www.digitalrealty.com"}, {"lat": 39.003, "lon": -77.487, "value": 29.7, "count": 1, "label": "Digital Realty IAD (43791 Devin Shafron) · Digital Realty · Ashburn", "name": "Digital Realty IAD (43791 Devin Shafron)", "description": "Digital Realty · Ashburn", "url": "https://www.digitalrealty.com"}, {"lat": 39.001, "lon": -77.475, "value": 29.7, "count": 1, "label": "QTS Ashburn (ASH3) · QTS Realty Trust, Inc. · Ashburn", "name": "QTS Ashburn (ASH3)", "description": "QTS Realty Trust, Inc. · Ashburn", "url": "http://qtsdatacenters.com"}, {"lat": 52.356, "lon": 4.951, "value": 93.8, "count": 1, "label": "NIKHEF Amsterdam · Nikhef · Amsterdam", "name": "NIKHEF Amsterdam", "description": "Nikhef · Amsterdam", "url": "http://www.nikhefhousing.nl"}, {"lat": 52.303, "lon": 4.938, "value": 81.8, "count": 1, "label": "Equinix AM7 - Amsterdam, Kuiperberweg · Equinix, Inc. · Amsterdam", "name": "Equinix AM7 - Amsterdam, Kuiperberweg", "description": "Equinix, Inc. · Amsterdam", "url": "https://www.equinix.com/locations/netherlands-colocation/amsterdam-data-centers/am7/"}, {"lat": 52.293, "lon": 4.945, "value": 78.2, "count": 1, "label": "Equinix AM5 - Amsterdam, Schepenbergweg · Equinix, Inc. · Amsterdam", "name": "Equinix AM5 - Amsterdam, Schepenbergweg", "description": "Equinix, Inc. · Amsterdam", "url": "https://www.equinix.com/locations/netherlands-colocation/amsterdam-data-centers/am5/"}, {"lat": 52.391, "lon": 4.665, "value": 77.7, "count": 1, "label": "Iron Mountain Data Center - Amsterdam (AMS-1) · Iron Mountain Data Centers · Amsterdam", "name": "Iron Mountain Data Center - Amsterdam (AMS-1)", "description": "Iron Mountain Data Centers · Amsterdam", "url": "https://www.ironmountain.com/data-centers/locations/amsterdam-data-center"}, {"lat": 52.357, "lon": 4.952, "value": 76.6, "count": 1, "label": "Digital Realty Amsterdam AMS9 · Digital Realty · Amsterdam", "name": "Digital Realty Amsterdam AMS9", "description": "Digital Realty · Amsterdam", "url": "https://www.digitalrealty.com/data-centers/amsterdam/science-park-121-schiphol-rijk-netherlands"}, {"lat": 52.356, "lon": 4.952, "value": 76.1, "count": 1, "label": "Digital Realty Amsterdam AMS17 · Digital Realty · Amsterdam", "name": "Digital Realty Amsterdam AMS17", "description": "Digital Realty · Amsterdam", "url": "https://www.digitalrealty.com"}, {"lat": 52.3, "lon": 4.943, "value": 75.8, "count": 1, "label": "Equinix AM1/AM2 - Amsterdam, Luttenbergweg · Equinix, Inc. · Amsterdam", "name": "Equinix AM1/AM2 - Amsterdam, Luttenbergweg", "description": "Equinix, Inc. · Amsterdam", "url": "https://www.equinix.com/locations/netherlands-colocation/amsterdam-data-centers/am1/"}, {"lat": 52.355, "lon": 4.959, "value": 73.5, "count": 1, "label": "Equinix AM3 - Amsterdam, Science Park · Equinix, Inc. · Amsterdam", "name": "Equinix AM3 - Amsterdam, Science Park", "description": "Equinix, Inc. · Amsterdam", "url": "https://www.equinix.com/locations/netherlands-colocation/amsterdam-data-centers/am3/"}, {"lat": 52.344, "lon": 4.829, "value": 70.1, "count": 1, "label": "Global Switch Amsterdam · Global Switch · Amsterdam", "name": "Global Switch Amsterdam", "description": "Global Switch · Amsterdam", "url": "https://www.globalswitch.com/locations/amsterdam"}, {"lat": 52.395, "lon": 4.864, "value": 66.2, "count": 1, "label": "Qupra DC · Qupra B.V. · Amsterdam", "name": "Qupra DC", "description": "Qupra B.V. · Amsterdam", "url": "http://www.quprawholesale.com"}, {"lat": 52.338, "lon": 4.935, "value": 64.1, "count": 1, "label": "Equinix AM6 - Amsterdam, Duivendrechtsekade · Equinix, Inc. · Amsterdam", "name": "Equinix AM6 - Amsterdam, Duivendrechtsekade", "description": "Equinix, Inc. · Amsterdam", "url": "https://www.equinix.com/locations/netherlands-colocation/amsterdam-data-centers/am6/"}, {"lat": -26.138, "lon": 28.198, "value": 90.7, "count": 1, "label": "Teraco Johannesburg Campus, South Africa · Teraco Data Environments Pty Ltd · Johannesburg", "name": "Teraco Johannesburg Campus, South Africa", "description": "Teraco Data Environments Pty Ltd · Johannesburg", "url": "http://www.teraco.co.za"}, {"lat": -26.011, "lon": 28.119, "value": 49.1, "count": 1, "label": "Africa Data Centres, Johannesburg JHB1, South Africa · Africa Data Centres · Midrand", "name": "Africa Data Centres, Johannesburg JHB1, South Africa", "description": "Africa Data Centres · Midrand", "url": "https://www.africadatacentres.com/"}, {"lat": -26.074, "lon": 28.278, "value": 48.5, "count": 1, "label": "Teraco Johannesburg Bredell Campus · Teraco Data Environments Pty Ltd · Johannesburg", "name": "Teraco Johannesburg Bredell Campus", "description": "Teraco Data Environments Pty Ltd · Johannesburg", "url": "https://www.teraco.co.za/data-centre-locations/"}, {"lat": -26.146, "lon": 28.037, "value": 47.1, "count": 1, "label": "NTT Data (MEA) - Parklands · Open Access Data Centres · Johannesburg", "name": "NTT Data (MEA) - Parklands", "description": "Open Access Data Centres · Johannesburg", "url": "https://www.is.co.za"}, {"lat": -26.136, "lon": 28.199, "value": 35.1, "count": 1, "label": "OADC JNB1 - Johannesburg · Open Access Data Centres · Johannesburg", "name": "OADC JNB1 - Johannesburg", "description": "Open Access Data Centres · Johannesburg", "url": "https://www.openaccessdc.net/"}, {"lat": -26.156, "lon": 28.198, "value": 33.5, "count": 1, "label": "Equinix JN1 - Johannesburg · Equinix, Inc. · Johannesburg", "name": "Equinix JN1 - Johannesburg", "description": "Equinix, Inc. · Johannesburg", "url": "https://www.equinix.com/data-centers/europe-colocation/south-africa-colocation/johannesburg-data-centers/jn1"}, {"lat": -26.134, "lon": 28.035, "value": 29.7, "count": 1, "label": "Reflex Solutions · Reflex Solutions (Pty) Ltd · Johannesburg", "name": "Reflex Solutions", "description": "Reflex Solutions (Pty) Ltd · Johannesburg", "url": "https://www.reflex.co.za/solutions-co-location.php"}, {"lat": 48.857, "lon": 2.385, "value": 89.6, "count": 1, "label": "Telehouse - Paris 2 (Voltaire - Léon Frot) · Telehouse - Global Data Centers · Paris", "name": "Telehouse - Paris 2 (Voltaire - Léon Frot)", "description": "Telehouse - Global Data Centers · Paris", "url": "http://www.telehouse.fr"}, {"lat": 48.927, "lon": 2.351, "value": 73.5, "count": 1, "label": "Equinix PA3 - Paris, Saint-Denis · Equinix, Inc. · Paris", "name": "Equinix PA3 - Paris, Saint-Denis", "description": "Equinix, Inc. · Paris", "url": "https://www.equinix.com/locations/france-colocation/paris-data-centers/pa3/"}, {"lat": 48.914, "lon": 2.362, "value": 65.4, "count": 1, "label": "Digital Realty Paris PAR5 · Digital Realty · Paris", "name": "Digital Realty Paris PAR5", "description": "Digital Realty · Paris", "url": "https://www.digitalrealty.com/data-centers/paris/11-13-avenue-des-arts-et-metiers-saint-denis-paris-france"}, {"lat": 48.904, "lon": 2.369, "value": 62.7, "count": 1, "label": "Equinix PA5 - Paris, Victor Hugo · Equinix, Inc. · Paris", "name": "Equinix PA5 - Paris, Victor Hugo", "description": "Equinix, Inc. · Paris", "url": "https://www.equinix.com/locations/france-colocation/paris-data-centers/pa5/"}, {"lat": 48.91, "lon": 2.368, "value": 62.4, "count": 1, "label": "Equinix PA6 - Paris, Condorcet · Equinix, Inc. · Paris", "name": "Equinix PA6 - Paris, Condorcet", "description": "Equinix, Inc. · Paris", "url": "https://www.equinix.com/locations/france-colocation/paris-data-centers/pa6/"}, {"lat": 48.907, "lon": 2.37, "value": 61.7, "count": 1, "label": "Digital Realty Paris PAR2 · Digital Realty · Paris", "name": "Digital Realty Paris PAR2", "description": "Digital Realty · Paris", "url": "https://www.digitalrealty.com/data-centers/paris/20-bis-rue-de-gardinoux-aubervilliers-paris-france"}, {"lat": 48.905, "lon": 2.259, "value": 60.3, "count": 1, "label": "Equinix PA7 - Paris, Energy Park · Equinix, Inc. · Paris", "name": "Equinix PA7 - Paris, Energy Park", "description": "Equinix, Inc. · Paris", "url": "https://www.equinix.com/locations/france-colocation/paris-data-centers/pa7/"}, {"lat": 48.901, "lon": 2.413, "value": 59.7, "count": 1, "label": "Equinix PA4 - Paris, Pantin · Equinix, Inc. · Paris", "name": "Equinix PA4 - Paris, Pantin", "description": "Equinix, Inc. · Paris", "url": "https://www.equinix.com/locations/france-colocation/paris-data-centers/pa4/"}, {"lat": 48.795, "lon": 2.412, "value": 58.7, "count": 1, "label": "OPCORE - DC2 / PAR2 · OPCORE · Vitry-sur-Seine", "name": "OPCORE - DC2 / PAR2", "description": "OPCORE · Vitry-sur-Seine", "url": "https://www.opcore.com/"}, {"lat": 48.904, "lon": 2.258, "value": 57.4, "count": 1, "label": "UltraEdge Paris - Courbevoie · UltraEdge · Paris", "name": "UltraEdge Paris - Courbevoie", "description": "UltraEdge · Paris", "url": "https://www.ultraedge.com"}, {"lat": 34.048, "lon": -118.256, "value": 88.9, "count": 1, "label": "CoreSite - Los Angeles (LA1) One Wilshire · CoreSite · Los Angeles", "name": "CoreSite - Los Angeles (LA1) One Wilshire", "description": "CoreSite · Los Angeles", "url": "http://www.coresite.com"}, {"lat": 34.058, "lon": -118.235, "value": 80.5, "count": 1, "label": "CoreSite - Los Angeles (LA2) · CoreSite · Los Angeles", "name": "CoreSite - Los Angeles (LA2)", "description": "CoreSite · Los Angeles", "url": "http://www.coresite.com"}, {"lat": 34.047, "lon": -118.257, "value": 75.6, "count": 1, "label": "Equinix LA1 - Los Angeles · Equinix, Inc. · Los Angeles", "name": "Equinix LA1 - Los Angeles", "description": "Equinix, Inc. · Los Angeles", "url": "https://www.equinix.com/locations/americas-colocation/united-states-colocation/los-angeles-data-centers/la1/"}, {"lat": 34.047, "lon": -118.257, "value": 60.6, "count": 1, "label": "Digital Realty LAX (600 W 7th) · Digital Realty · Los Angeles", "name": "Digital Realty LAX (600 W 7th)", "description": "Digital Realty · Los Angeles", "url": "https://www.digitalrealty.com"}, {"lat": 34.059, "lon": -118.236, "value": 44.9, "count": 1, "label": "CoreSite - Los Angeles (LA3) · CoreSite · Los Angeles", "name": "CoreSite - Los Angeles (LA3)", "description": "CoreSite · Los Angeles", "url": "http://www.coresite.com"}, {"lat": 34.048, "lon": -118.255, "value": 44.1, "count": 1, "label": "QuadraNet DTLA · QuadraNet Enterprises LLC · Los Angeles", "name": "QuadraNet DTLA", "description": "QuadraNet Enterprises LLC · Los Angeles", "url": "http://www.quadranet.com"}, {"lat": 34.049, "lon": -118.26, "value": 41.3, "count": 1, "label": "Equinix LA2 - Los Angeles · Equinix, Inc. · Los Angeles", "name": "Equinix LA2 - Los Angeles", "description": "Equinix, Inc. · Los Angeles", "url": "https://www.equinix.com/locations/americas-colocation/united-states-colocation/los-angeles-data-centers/la2/"}, {"lat": 34.048, "lon": -118.255, "value": 41.3, "count": 1, "label": "Crown Castle Los Angeles (624 S Grand) · Crown Castle Inc. · Los Angeles", "name": "Crown Castle Los Angeles (624 S Grand)", "description": "Crown Castle Inc. · Los Angeles", "url": "http://fiber.crowncastle.com/solutions/infrastructure/colocation"}, {"lat": 34.048, "lon": -118.255, "value": 36.6, "count": 1, "label": "Telecom Center LA · Morlin Management · Los Angeles", "name": "Telecom Center LA", "description": "Morlin Management · Los Angeles", "url": "http://latelecomcenter.com/"}, {"lat": 34.049, "lon": -118.258, "value": 36.6, "count": 1, "label": "Psychz Networks LAX1 · Psychz Networks · Los Angeles", "name": "Psychz Networks LAX1", "description": "Psychz Networks · Los Angeles", "url": "http://www.psychz.net"}, {"lat": 34.051, "lon": -118.266, "value": 31.7, "count": 1, "label": "The Garland Center / West 7 Center · Rising Realty Partners · Los Angeles", "name": "The Garland Center / West 7 Center", "description": "Rising Realty Partners · Los Angeles", "url": "http://www.west7center.com"}, {"lat": 34.049, "lon": -118.26, "value": 29.7, "count": 1, "label": "Level(3) Los Angeles · Lumen Technologies Inc · Los Angeles", "name": "Level(3) Los Angeles", "description": "Lumen Technologies Inc · Los Angeles", "url": "http://www.level3.com"}, {"lat": 41.854, "lon": -87.618, "value": 88.4, "count": 1, "label": "Equinix CH1/CH2/CH4 - Chicago · Equinix, Inc. · Chicago", "name": "Equinix CH1/CH2/CH4 - Chicago", "description": "Equinix, Inc. · Chicago", "url": "http://www.equinix.com/"}, {"lat": 41.854, "lon": -87.618, "value": 69.9, "count": 1, "label": "Digital Realty CHI (350 E Cermak) · Digital Realty · Chicago", "name": "Digital Realty CHI (350 E Cermak)", "description": "Digital Realty · Chicago", "url": "https://www.digitalrealty.com"}, {"lat": 41.876, "lon": -87.631, "value": 65.6, "count": 1, "label": "CoreSite - Chicago (CH1) · CoreSite · Chicago", "name": "CoreSite - Chicago (CH1)", "description": "CoreSite · Chicago", "url": "http://www.coresite.com"}, {"lat": 41.873, "lon": -87.633, "value": 47.8, "count": 1, "label": "Netrality Chicago - 717 S Wells · Netrality Data Centers · Chicago", "name": "Netrality Chicago - 717 S Wells", "description": "Netrality Data Centers · Chicago", "url": "https://netrality.com/locations/data-center-chicago/"}, {"lat": 41.876, "lon": -87.631, "value": 46.4, "count": 1, "label": "365 Data Centers Chicago (CH6) · 365 Data Centers · Chicago", "name": "365 Data Centers Chicago (CH6)", "description": "365 Data Centers · Chicago", "url": "https://www.365datacenters.com/chicago-data-center/"}, {"lat": 41.994, "lon": -87.962, "value": 46.4, "count": 1, "label": "Digital Realty CHI (2200 Busse Rd.) · Digital Realty · Elk Grove Village", "name": "Digital Realty CHI (2200 Busse Rd.)", "description": "Digital Realty · Elk Grove Village", "url": "https://www.digitalrealty.com"}, {"lat": 41.899, "lon": -87.645, "value": 42.3, "count": 1, "label": "Level(3) Chicago (Kingsbury) · Lumen Technologies Inc · Chicago", "name": "Level(3) Chicago (Kingsbury)", "description": "Lumen Technologies Inc · Chicago", "url": "http://www.level3.com"}, {"lat": 41.863, "lon": -87.641, "value": 42.3, "count": 1, "label": "CoreSite - Chicago (CH2) · CoreSite · Chicago", "name": "CoreSite - Chicago (CH2)", "description": "CoreSite · Chicago", "url": "http://www.coresite.com"}, {"lat": 41.842, "lon": -87.668, "value": 41.3, "count": 1, "label": "QTS Chicago (CHI1) · QTS Realty Trust, Inc. · Chicago", "name": "QTS Chicago (CHI1)", "description": "QTS Realty Trust, Inc. · Chicago", "url": "http://www.qtsdatacenters.com/data-centers/chicago"}, {"lat": 41.872, "lon": -87.643, "value": 35.1, "count": 1, "label": "TierPoint Chicago - Polk · TierPoint, LLC · Chicago", "name": "TierPoint Chicago - Polk", "description": "TierPoint, LLC · Chicago", "url": "http://www.tierpoint.com"}, {"lat": 41.992, "lon": -87.958, "value": 33.5, "count": 1, "label": "Centersquare Chicago (ORD2) · Centersquare · Elk Grove Village", "name": "Centersquare Chicago (ORD2)", "description": "Centersquare · Elk Grove Village", "url": "https://centersquaredc.com/data-centers/chicago"}, {"lat": 25.783, "lon": -80.193, "value": 88.4, "count": 1, "label": "Equinix MI1 - Miami, NOTA · Equinix, Inc. · Miami", "name": "Equinix MI1 - Miami, NOTA", "description": "Equinix, Inc. · Miami", "url": "https://www.equinix.com/locations/americas-colocation/united-states-colocation/miami-data-centers/mi1/"}, {"lat": 25.776, "lon": -80.193, "value": 57.7, "count": 1, "label": "ColoHouse Miami · ColoHouse Premier Datacenter · Miami", "name": "ColoHouse Miami", "description": "ColoHouse Premier Datacenter · Miami", "url": "http://www.colohouse.com/"}, {"lat": 25.776, "lon": -80.193, "value": 52.9, "count": 1, "label": "Digital Realty MIA (36 NE 2nd St) · Digital Realty · Miami", "name": "Digital Realty MIA (36 NE 2nd St)", "description": "Digital Realty · Miami", "url": "https://www.digitalrealty.com"}, {"lat": 25.776, "lon": -80.193, "value": 51.4, "count": 1, "label": "Equinix MI2 - Miami · Equinix, Inc. · Miami", "name": "Equinix MI2 - Miami", "description": "Equinix, Inc. · Miami", "url": "https://www.equinix.com/locations/americas-colocation/united-states-colocation/miami-data-centers/mi2/"}, {"lat": 25.798, "lon": -80.23, "value": 47.1, "count": 1, "label": "CoreSite - Miami (MI1) · CoreSite · Miami", "name": "CoreSite - Miami (MI1)", "description": "CoreSite · Miami", "url": "http://www.coresite.com"}, {"lat": 25.776, "lon": -80.193, "value": 47.1, "count": 1, "label": "DataBank Miami (MIA1) · DataBank, Ltd. · Miami", "name": "DataBank Miami (MIA1)", "description": "DataBank, Ltd. · Miami", "url": "https://www.databank.com/data-centers/miami/mia1/"}, {"lat": 25.788, "lon": -80.355, "value": 37.9, "count": 1, "label": "Equinix MI6 - Miami, Doral · Equinix, Inc. · Doral", "name": "Equinix MI6 - Miami, Doral", "description": "Equinix, Inc. · Doral", "url": "https://www.equinix.com/locations/americas-colocation/united-states-colocation/miami-data-centers/mi6/"}, {"lat": 25.776, "lon": -80.193, "value": 35.1, "count": 1, "label": "South Reach Networks · South Reach Networks · Miami", "name": "South Reach Networks", "description": "South Reach Networks · Miami", "url": "https://www.srnetworks.net/"}, {"lat": 25.792, "lon": -80.38, "value": 31.7, "count": 1, "label": "QTS Miami (MIA1) · QTS Realty Trust, Inc. · Miami", "name": "QTS Miami (MIA1)", "description": "QTS Realty Trust, Inc. · Miami", "url": "http://www.qtsdatacenters.com/data-centers/miami"}, {"lat": 25.793, "lon": -80.381, "value": 31.7, "count": 1, "label": "EdgeConneX Miami (EDCMIA01) · EdgeConneX Inc. · Miami", "name": "EdgeConneX Miami (EDCMIA01)", "description": "EdgeConneX Inc. · Miami", "url": "http://www.edgeconnex.com"}, {"lat": 25.793, "lon": -80.334, "value": 24.5, "count": 1, "label": "CoreSite - Miami (MI2) · CoreSite · Doral", "name": "CoreSite - Miami (MI2)", "description": "CoreSite · Doral", "url": "http://www.coresite.com"}, {"lat": 51.499, "lon": -0.014, "value": 88.0, "count": 1, "label": "Equinix LD8 - London, Docklands · Equinix, Inc. · London", "name": "Equinix LD8 - London, Docklands", "description": "Equinix, Inc. · London", "url": "http://www.equinix.com/locations/"}, {"lat": 51.522, "lon": -0.629, "value": 77.5, "count": 1, "label": "Equinix LD5 - London, Slough · Equinix, Inc. · Slough", "name": "Equinix LD5 - London, Slough", "description": "Equinix, Inc. · Slough", "url": "http://www.equinix.com"}, {"lat": 51.52, "lon": -0.074, "value": 73.1, "count": 1, "label": "Digital Realty London LON1-3 · Digital Realty · London", "name": "Digital Realty London LON1-3", "description": "Digital Realty · London", "url": "https://www.digitalrealty.com/data-centers/london/11-hanbury-st-london-united-kingdom"}, {"lat": 51.5, "lon": -0.011, "value": 69.6, "count": 1, "label": "Digital Realty London LHR20 · Digital Realty · London", "name": "Digital Realty London LHR20", "description": "Digital Realty · London", "url": "https://www.interxion.com/"}, {"lat": 51.524, "lon": -0.636, "value": 66.6, "count": 1, "label": "Equinix LD4 - London, Slough · Equinix, Inc. · Slough", "name": "Equinix LD4 - London, Slough", "description": "Equinix, Inc. · Slough", "url": "http://www.equinix.com/"}, {"lat": 51.526, "lon": -0.634, "value": 65.8, "count": 1, "label": "Equinix LD7 -  London, Slough · Equinix, Inc. · Slough", "name": "Equinix LD7 -  London, Slough", "description": "Equinix, Inc. · Slough", "url": "https://www.equinix.com/"}, {"lat": 51.524, "lon": -0.638, "value": 65.2, "count": 1, "label": "Equinix LD6 - London, Slough · Equinix, Inc. · Slough", "name": "Equinix LD6 - London, Slough", "description": "Equinix, Inc. · Slough", "url": "https://www.equinix.com"}, {"lat": 51.507, "lon": -0.003, "value": 56.6, "count": 1, "label": "Telehouse - London (Docklands South) · Telehouse - Global Data Centers · London", "name": "Telehouse - London (Docklands South)", "description": "Telehouse - Global Data Centers · London", "url": "http://telehouse.net/data-centre-services/uk/london/telehouse-south/"}, {"lat": 51.523, "lon": -0.101, "value": 56.3, "count": 1, "label": "Verne London · Verne Global · London", "name": "Verne London", "description": "Verne Global · London", "url": "https://www.verneglobal.com/united-kingdom"}, {"lat": 51.523, "lon": -0.083, "value": 55.5, "count": 1, "label": "Redcentric London Data Centre · Redcentric PLC · London", "name": "Redcentric London Data Centre", "description": "Redcentric PLC · London", "url": "https://www.redcentricplc.com/uk-data-centres/london-data-centre/"}, {"lat": 51.497, "lon": -0.019, "value": 54.7, "count": 1, "label": "Digital Realty London LHR19 · Digital Realty · London", "name": "Digital Realty London LHR19", "description": "Digital Realty · London", "url": "https://www.interxion.com/"}, {"lat": 51.529, "lon": -0.101, "value": 53.8, "count": 1, "label": "Level(3) London (Goswell Road) · Lumen Technologies Inc · London", "name": "Level(3) London (Goswell Road)", "description": "Lumen Technologies Inc · London", "url": "http://www.level3.com"}, {"lat": 37.472, "lon": -121.92, "value": 87.2, "count": 1, "label": "Hurricane Electric Fremont 2 · Hurricane Electric · Fremont", "name": "Hurricane Electric Fremont 2", "description": "Hurricane Electric · Fremont", "url": "https://he.net"}, {"lat": 37.242, "lon": -121.783, "value": 86.2, "count": 1, "label": "Equinix SV1/SV5/SV10 - Silicon Valley, San Jose · Equinix, Inc. · San Jose", "name": "Equinix SV1/SV5/SV10 - Silicon Valley, San Jose", "description": "Equinix, Inc. · San Jose", "url": "https://www.equinix.com/locations/americas-colocation/united-states-colocation/silicon-valley-data-centers/"}, {"lat": 37.334, "lon": -121.892, "value": 61.4, "count": 1, "label": "CoreSite - San Jose (SV1) · CoreSite · San Jose", "name": "CoreSite - San Jose (SV1)", "description": "CoreSite · San Jose", "url": "http://www.coresite.com"}, {"lat": 37.49, "lon": -121.931, "value": 57.0, "count": 1, "label": "Hurricane Electric Fremont 1 · Hurricane Electric · Fremont", "name": "Hurricane Electric Fremont 1", "description": "Hurricane Electric · Fremont", "url": "http://he.net/colocation.html"}, {"lat": 37.379, "lon": -121.956, "value": 49.7, "count": 1, "label": "OpenColo · Energy Group Networks LLC · Santa Clara", "name": "OpenColo", "description": "Energy Group Networks LLC · Santa Clara", "url": "https://opencolo.com/our-facility/"}, {"lat": 37.378, "lon": -121.955, "value": 49.1, "count": 1, "label": "Equinix SV2 - Silicon Valley, Santa Clara · Equinix, Inc. · Santa Clara", "name": "Equinix SV2 - Silicon Valley, Santa Clara", "description": "Equinix, Inc. · Santa Clara", "url": "https://www.equinix.com/locations/americas-colocation/united-states-colocation/silicon-valley-data-centers/sv2/"}, {"lat": 37.388, "lon": -121.888, "value": 47.8, "count": 1, "label": "Equinix SV3 - Silicon Valley, San Jose · Equinix, Inc. · San Jose", "name": "Equinix SV3 - Silicon Valley, San Jose", "description": "Equinix, Inc. · San Jose", "url": "https://www.equinix.com/locations/americas-colocation/united-states-colocation/silicon-valley-data-centers/sv3/"}, {"lat": 37.376, "lon": -121.971, "value": 47.1, "count": 1, "label": "CoreSite - Santa Clara (SV4) · CoreSite · Santa Clara", "name": "CoreSite - Santa Clara (SV4)", "description": "CoreSite · Santa Clara", "url": "http://www.coresite.com"}, {"lat": 37.376, "lon": -121.973, "value": 46.4, "count": 1, "label": "CoreSite - Santa Clara (SV7) · CoreSite · Santa Clara", "name": "CoreSite - Santa Clara (SV7)", "description": "CoreSite · Santa Clara", "url": "http://www.coresite.com"}, {"lat": 37.378, "lon": -121.954, "value": 40.2, "count": 1, "label": "Evocative SJC3 · VPLS · Santa Clara", "name": "Evocative SJC3", "description": "VPLS · Santa Clara", "url": "http://www.evocative.com/"}, {"lat": 37.373, "lon": -121.973, "value": 40.2, "count": 1, "label": "Digital Realty SJC (2820 NW Pkwy) · Digital Realty · Santa Clara", "name": "Digital Realty SJC (2820 NW Pkwy)", "description": "Digital Realty · Santa Clara", "url": "https://www.digitalrealty.com"}, {"lat": 37.394, "lon": -121.978, "value": 39.1, "count": 1, "label": "QTS Santa Clara (SJC1/SJC2) · QTS Realty Trust, Inc. · Santa Clara", "name": "QTS Santa Clara (SJC1/SJC2)", "description": "QTS Realty Trust, Inc. · Santa Clara", "url": "http://www.qtsdatacenters.com/data-centers/santa-clara"}, {"lat": 50.254, "lon": 19.003, "value": 86.3, "count": 1, "label": "4 Data Center · Quicktel Sp. z o.o. · Katowice", "name": "4 Data Center", "description": "Quicktel Sp. z o.o. · Katowice", "url": "http://www.4datacenter.com"}, {"lat": 50.254, "lon": 19.003, "value": 51.4, "count": 1, "label": "Quicktel Sp. z o.o. · MCG Jakub Skorek · Katowice", "name": "Quicktel Sp. z o.o.", "description": "MCG Jakub Skorek · Katowice", "url": "http://www.4datacenter.com"}, {"lat": 50.021, "lon": 19.896, "value": 33.5, "count": 1, "label": "Netia Data Center SOUL · Netia S.A. · Krakow", "name": "Netia Data Center SOUL", "description": "Netia S.A. · Krakow", "url": "https://www.netia.pl/en/operators/produkty/infrastructure/data-center"}, {"lat": 50.244, "lon": 19.025, "value": 31.7, "count": 1, "label": "Orange Polska // Katowice · Orange Polska Spolka Akcyjna · Katowice", "name": "Orange Polska // Katowice", "description": "Orange Polska Spolka Akcyjna · Katowice", "url": "http://www.orange.pl"}, {"lat": 50.072, "lon": 19.956, "value": 31.7, "count": 1, "label": "Orange Polska // Kraków · Orange Polska Spolka Akcyjna · Krakow", "name": "Orange Polska // Kraków", "description": "Orange Polska Spolka Akcyjna · Krakow", "url": "http://www.orange.pl"}, {"lat": 50.073, "lon": 19.915, "value": 31.7, "count": 1, "label": "Connected Krakow · Connected sp. z o.o. · Krakow", "name": "Connected Krakow", "description": "Connected sp. z o.o. · Krakow", "url": "http://connected.pl"}, {"lat": 50.262, "lon": 19.025, "value": 29.7, "count": 1, "label": "ATMAN Data Center Katowice-1 (KTW-1, Altus) · Atman Sp. z o.o. · Katowice", "name": "ATMAN Data Center Katowice-1 (KTW-1, Altus)", "description": "Atman Sp. z o.o. · Katowice", "url": "https://atman.pl"}, {"lat": 50.072, "lon": 19.903, "value": 29.7, "count": 1, "label": "S-NET KRAKOW DATA CENTER KRDC-1 · S-NET Sp. z o.o. · Krakow", "name": "S-NET KRAKOW DATA CENTER KRDC-1", "description": "S-NET Sp. z o.o. · Krakow", "url": "http://www.s-net.pl/en/data-center-3/locations/krdc-1-2.html"}, {"lat": 50.218, "lon": 19.261, "value": 21.1, "count": 1, "label": "Netia Jaworzno (JAWOH001) · Netia S.A. · Jaworzno", "name": "Netia Jaworzno (JAWOH001)", "description": "Netia S.A. · Jaworzno", "url": "http://www.netia.pl"}, {"lat": 50.074, "lon": 19.913, "value": 10.6, "count": 1, "label": "WNET DC Krakow · WNET Global Network · Krakow", "name": "WNET DC Krakow", "description": "WNET Global Network · Krakow", "url": "http://w-net.eu"}, {"lat": 50.097, "lon": 19.556, "value": 10.6, "count": 1, "label": "Polcom Alwernia Datacenter · Polcom Sp. z o.o. · Grojec", "name": "Polcom Alwernia Datacenter", "description": "Polcom Sp. z o.o. · Grojec", "url": "https://polcom.com.pl/"}, {"lat": 55.653, "lon": 37.529, "value": 85.7, "count": 1, "label": "Moscow M9 · MMTS-9 JSC · Moscow", "name": "Moscow M9", "description": "MMTS-9 JSC · Moscow", "url": "http://www.mmts9.ru"}, {"lat": 55.862, "lon": 37.577, "value": 56.3, "count": 1, "label": "IXcellerate MOS1 · IXcellerate LLC · Moscow", "name": "IXcellerate MOS1", "description": "IXcellerate LLC · Moscow", "url": "https://www.ixcellerate.com/data-centers/moscow-north-campus/#mos1"}, {"lat": 55.792, "lon": 37.608, "value": 55.9, "count": 1, "label": "Moscow M10 · ROSTELECOM · Moscow", "name": "Moscow M10", "description": "ROSTELECOM · Moscow", "url": "https://www.company.rt.ru/en/"}, {"lat": 55.771, "lon": 37.715, "value": 52.9, "count": 1, "label": "DataLine  Moscow DC OST · LLC Dataline · Moscow", "name": "DataLine  Moscow DC OST", "description": "LLC Dataline · Moscow", "url": "http://www.dtln.ru/en/contacts/ost"}, {"lat": 55.805, "lon": 37.552, "value": 49.7, "count": 1, "label": "Linxdatacenter (Moscow) · Linxdatacenter · Moscow", "name": "Linxdatacenter (Moscow)", "description": "Linxdatacenter · Moscow", "url": "http://www.linxdatacenter.com"}, {"lat": 55.887, "lon": 37.513, "value": 49.7, "count": 1, "label": "DataLine  Moscow DC NORD · LLC Dataline · Moscow", "name": "DataLine  Moscow DC NORD", "description": "LLC Dataline · Moscow", "url": "http://www.dtln.ru/en/contacts/nord"}, {"lat": 55.721, "lon": 37.675, "value": 45.7, "count": 1, "label": "DataSpace Moscow · DataSpace Partners LLC · Moscow", "name": "DataSpace Moscow", "description": "DataSpace Partners LLC · Moscow", "url": "http://www.dataspace.ru"}, {"lat": 55.737, "lon": 37.695, "value": 43.2, "count": 1, "label": "StoreData · StoreData LLC · Moscow", "name": "StoreData", "description": "StoreData LLC · Moscow", "url": "http://www.storedata.ru/"}, {"lat": 55.674, "lon": 37.621, "value": 39.1, "count": 1, "label": "DataHouse Moscow · Filanco Ltd. · Moscow", "name": "DataHouse Moscow", "description": "Filanco Ltd. · Moscow", "url": "https://datahouse.ru"}, {"lat": 55.771, "lon": 37.653, "value": 37.9, "count": 1, "label": "CSS MPS Moscow · CSS MPS Moscow · Moscow", "name": "CSS MPS Moscow", "description": "CSS MPS Moscow · Moscow", "url": "http://www.css-mps.ru/"}, {"lat": 55.608, "lon": 37.625, "value": 35.1, "count": 1, "label": "IXcellerate MOS5 · IXcellerate LLC · Moscow", "name": "IXcellerate MOS5", "description": "IXcellerate LLC · Moscow", "url": "https://ixcellerate.ru/"}, {"lat": 45.476, "lon": 9.104, "value": 85.3, "count": 1, "label": "MIX DC CALDERA · MIX s.r.l. · Milan", "name": "MIX DC CALDERA", "description": "MIX s.r.l. · Milan", "url": "https://www.mix-it.net/"}, {"lat": 45.478, "lon": 9.105, "value": 61.4, "count": 1, "label": "Seeweb Milano Caldera · Seeweb Srl · Milan", "name": "Seeweb Milano Caldera", "description": "Seeweb Srl · Milan", "url": "https://www.seeweb.it/"}, {"lat": 45.449, "lon": 9.147, "value": 58.1, "count": 1, "label": "Equinix ML2 - Milan, Savona · Equinix, Inc. · Milan", "name": "Equinix ML2 - Milan, Savona", "description": "Equinix, Inc. · Milan", "url": "https://www.equinix.com/locations/europe-colocation/italy-colocation/milan-data-centers/ml2/"}, {"lat": 45.481, "lon": 9.032, "value": 57.4, "count": 1, "label": "DATA4 Milan-Cornaredo - MIL1 · DATA4 s.a r.l · Cornaredo (MI)", "name": "DATA4 Milan-Cornaredo - MIL1", "description": "DATA4 s.a r.l · Cornaredo (MI)", "url": "http://www.data4group.com"}, {"lat": 45.331, "lon": 9.206, "value": 52.9, "count": 1, "label": "MIL01 Vaultica Data Centers · Vaultica Data Centers - Italy · Siziano", "name": "MIL01 Vaultica Data Centers", "description": "Vaultica Data Centers - Italy · Siziano", "url": "https://www.vaultica.com/italy/#MIL01"}, {"lat": 45.475, "lon": 9.038, "value": 48.5, "count": 1, "label": "Equinix ML5 - Milan · Equinix, Inc. · 5 Settimo Milanese", "name": "Equinix ML5 - Milan", "description": "Equinix, Inc. · 5 Settimo Milanese", "url": "https://www.equinix.com/data-centers/europe-colocation/italy-colocation/milan-data-centers/ml5"}, {"lat": 45.706, "lon": 9.59, "value": 47.8, "count": 1, "label": "Aruba IT3 - Milan PSP · Aruba S.p.A · Ponte San Pietro", "name": "Aruba IT3 - Milan PSP", "description": "Aruba S.p.A · Ponte San Pietro", "url": "https://www.datacenter.it/data-center-aruba/italia-milano-dc-it3.aspx"}, {"lat": 45.476, "lon": 9.104, "value": 36.6, "count": 1, "label": "Telnet Caldera Milan · Telnet · Milan", "name": "Telnet Caldera Milan", "description": "Telnet · Milan", "url": "https://www.telnet.it"}, {"lat": 45.478, "lon": 9.102, "value": 36.6, "count": 1, "label": "EXA Edge DC Milan · EXA Infrastructure · Milan", "name": "EXA Edge DC Milan", "description": "EXA Infrastructure · Milan", "url": "https://exainfra.net"}, {"lat": 45.05, "lon": 9.738, "value": 36.6, "count": 1, "label": "Naquadria Datacenter Piacenza · Naquadria S.r.l. · Piacenza", "name": "Naquadria Datacenter Piacenza", "description": "Naquadria S.r.l. · Piacenza", "url": "https://www.naquadria.it/"}, {"lat": 22.266, "lon": 114.247, "value": 85.2, "count": 1, "label": "MEGA-i (iAdvantage Hong Kong) · iAdvantage Hong Kong · Hong Kong", "name": "MEGA-i (iAdvantage Hong Kong)", "description": "iAdvantage Hong Kong · Hong Kong", "url": "http://www.iadvantage.net/"}, {"lat": 22.362, "lon": 114.119, "value": 80.9, "count": 1, "label": "Equinix HK2 - Hong Kong · Equinix, Inc. · Kwai Chung", "name": "Equinix HK2 - Hong Kong", "description": "Equinix, Inc. · Kwai Chung", "url": "https://www.equinix.com/locations/asia-colocation/hong-kong-colocation/hong-kong-data-center/hk2/"}, {"lat": 22.366, "lon": 114.119, "value": 80.0, "count": 1, "label": "Equinix HK1 - Hong Kong · Equinix, Inc. · Tsuen Wan", "name": "Equinix HK1 - Hong Kong", "description": "Equinix, Inc. · Tsuen Wan", "url": "https://www.equinix.com/locations/asia-colocation/hong-kong-colocation/hong-kong-data-center/hk1/"}, {"lat": 22.368, "lon": 114.119, "value": 58.1, "count": 1, "label": "Equinix HK3 - Hong Kong · Equinix, Inc. · Tsuen Wan", "name": "Equinix HK3 - Hong Kong", "description": "Equinix, Inc. · Tsuen Wan", "url": "https://www.equinix.com/locations/asia-colocation/hong-kong-colocation/hong-kong-data-center/hk3/"}, {"lat": 22.398, "lon": 114.19, "value": 55.1, "count": 1, "label": "MEGA Two (iAdvantage Hong Kong) · iAdvantage Hong Kong · Hong Kong", "name": "MEGA Two (iAdvantage Hong Kong)", "description": "iAdvantage Hong Kong · Hong Kong", "url": "http://www.iadvantage.net"}, {"lat": 22.289, "lon": 114.272, "value": 50.8, "count": 1, "label": "China Mobile International - GNC Hong Kong · China Mobile International Limited · Hong Kong", "name": "China Mobile International - GNC Hong Kong", "description": "China Mobile International Limited · Hong Kong", "url": "https://globalresources.cmi.chinamobile.com"}, {"lat": 22.368, "lon": 114.137, "value": 50.3, "count": 1, "label": "iTech Towers 2 · Grand Ming Group Holdings Limited · New Territories", "name": "iTech Towers 2", "description": "Grand Ming Group Holdings Limited · New Territories", "url": "http://itechtower.com/"}, {"lat": 22.287, "lon": 114.274, "value": 49.1, "count": 1, "label": "TGT Hong Kong Data Centre 2 · Towngas Telecommunications Co., Ltd. · Hong Kong", "name": "TGT Hong Kong Data Centre 2", "description": "Towngas Telecommunications Co., Ltd. · Hong Kong", "url": "https://www.towngastelecom.com/locations/"}, {"lat": 22.291, "lon": 114.275, "value": 47.1, "count": 1, "label": "Telehouse - Hong Kong CCC (HKCOLO TKO) · Telehouse - Global Data Centers · Hong Kong", "name": "Telehouse - Hong Kong CCC (HKCOLO TKO)", "description": "Telehouse - Global Data Centers · Hong Kong", "url": "http://www.telehouse.com"}, {"lat": 22.283, "lon": 114.269, "value": 46.4, "count": 1, "label": "China Unicom (Hong Kong) Global Center · China Unicom · Hong Kong", "name": "China Unicom (Hong Kong) Global Center", "description": "China Unicom · Hong Kong", "url": "http://www.chinaunicomglobal.com"}, {"lat": 22.287, "lon": 114.275, "value": 45.7, "count": 1, "label": "TOWNGAS TELECOM DATA CENTRE 2 · EFLY NETWORK LIMITED · Hong Kong", "name": "TOWNGAS TELECOM DATA CENTRE 2", "description": "EFLY NETWORK LIMITED · Hong Kong", "url": "http://www.tgthkdc2.com/"}, {"lat": 22.267, "lon": 114.246, "value": 43.2, "count": 1, "label": "HKCOLO - Sino Favour Centre · HKCOLO - Sino Favour Centre · Hong Kong", "name": "HKCOLO - Sino Favour Centre", "description": "HKCOLO - Sino Favour Centre · Hong Kong", "url": "http://www.hkcolo.com/"}, {"lat": 52.228, "lon": 21.005, "value": 84.4, "count": 1, "label": "LIM Warsaw · LIM CENTER Spółka z ograniczoną odpowiedzialnością · Warsaw", "name": "LIM Warsaw", "description": "LIM CENTER Spółka z ograniczoną odpowiedzialnością · Warsaw", "url": "https://www.limdc.pl/"}, {"lat": 52.235, "lon": 21.123, "value": 57.0, "count": 1, "label": "ATMAN Data Center Warsaw-1 (WAW-1, Grochowska 21A) · Atman Sp. z o.o. · Warsaw", "name": "ATMAN Data Center Warsaw-1 (WAW-1, Grochowska 21A)", "description": "Atman Sp. z o.o. · Warsaw", "url": "https://atman.pl"}, {"lat": 52.228, "lon": 21.004, "value": 48.5, "count": 1, "label": "1-DC EU · A-Systems Sp. z o.o. · Warsaw", "name": "1-DC EU", "description": "A-Systems Sp. z o.o. · Warsaw", "url": "https://1-dc.eu"}, {"lat": 52.227, "lon": 21.009, "value": 45.7, "count": 1, "label": "Orange Polska / Warsaw św. Barbary 10 · Orange Polska Spolka Akcyjna · Warsaw", "name": "Orange Polska / Warsaw św. Barbary 10", "description": "Orange Polska Spolka Akcyjna · Warsaw", "url": "http://www.orange.pl/"}, {"lat": 52.223, "lon": 21.02, "value": 44.9, "count": 1, "label": "Netia Warsaw (WARSC001) · Netia S.A. · Warsaw", "name": "Netia Warsaw (WARSC001)", "description": "Netia S.A. · Warsaw", "url": "https://www.netia.pl"}, {"lat": 52.227, "lon": 21.009, "value": 40.2, "count": 1, "label": "Orange Polska // Warszawa · Orange Polska Spolka Akcyjna · Warsaw", "name": "Orange Polska // Warszawa", "description": "Orange Polska Spolka Akcyjna · Warsaw", "url": "http://www.orange.pl"}, {"lat": 52.613, "lon": 21.428, "value": 36.6, "count": 1, "label": "MEVSPACE DC-1 · Mevspace sp. z o.o. · Wyszków", "name": "MEVSPACE DC-1", "description": "Mevspace sp. z o.o. · Wyszków", "url": "https://mevspace.com"}, {"lat": 52.154, "lon": 21.012, "value": 35.1, "count": 1, "label": "Netia Data Center HEART · Netia S.A. · Warsaw", "name": "Netia Data Center HEART", "description": "Netia S.A. · Warsaw", "url": "https://www.netia.pl/en/operators/produkty/infrastructure/data-center"}, {"lat": 52.224, "lon": 21.018, "value": 16.8, "count": 1, "label": "T-Mobile Piękna · T-Mobile Czech Republic a.s. · Warsaw", "name": "T-Mobile Piękna", "description": "T-Mobile Czech Republic a.s. · Warsaw", "url": "https://www.t-mobile.cz/dcpublic/Datova_centra_Varsava.pdf"}, {"lat": 19.114, "lon": 72.893, "value": 84.0, "count": 1, "label": "Equinix MB1 - Mumbai (GPX Mumbai 1) · Equinix, Inc. · Mumbai", "name": "Equinix MB1 - Mumbai (GPX Mumbai 1)", "description": "Equinix, Inc. · Mumbai", "url": "https://www.equinix.com"}, {"lat": 19.02, "lon": 72.832, "value": 68.3, "count": 1, "label": "TATA Communications Mumbai · TATA Communications Ltd · Mumbai", "name": "TATA Communications Mumbai", "description": "TATA Communications Ltd · Mumbai", "url": "http://www.tatacommunications.com"}, {"lat": 19.109, "lon": 72.901, "value": 61.9, "count": 1, "label": "Equinix MB2 - Mumbai (GPX Mumbai 2) · Equinix, Inc. · Mumbai", "name": "Equinix MB2 - Mumbai (GPX Mumbai 2)", "description": "Equinix, Inc. · Mumbai", "url": "https://www.equinix.com"}, {"lat": 19.067, "lon": 72.835, "value": 58.4, "count": 1, "label": "Bharti Airtel Mumbai · Bharti Airtel Limited · Mumbai", "name": "Bharti Airtel Mumbai", "description": "Bharti Airtel Limited · Mumbai", "url": "http://www.airtel.in"}, {"lat": 19.168, "lon": 72.999, "value": 50.8, "count": 1, "label": "Sify Airoli-DC- Mumbai · Sify Technologies Limited · Mumbai", "name": "Sify Airoli-DC- Mumbai", "description": "Sify Technologies Limited · Mumbai", "url": "http://datacentre.sify.com/"}, {"lat": 19.114, "lon": 72.889, "value": 50.3, "count": 1, "label": "Netmagic Chandivali - MUM-DC05 · NTTCINS · Mumbai", "name": "Netmagic Chandivali - MUM-DC05", "description": "NTTCINS · Mumbai", "url": "https://services.global.ntt/en-us/"}, {"lat": 19.021, "lon": 72.831, "value": 49.1, "count": 1, "label": "STT Mumbai 2 · ST Telemedia Global Data Centres (STT GDC) · Mumbai", "name": "STT Mumbai 2", "description": "ST Telemedia Global Data Centres (STT GDC) · Mumbai", "url": "http://www.sttelemediagdc.com"}, {"lat": 19.121, "lon": 72.898, "value": 36.6, "count": 1, "label": "NIXI Mumbai GPX · National Internet Exchange of India · Mumbai", "name": "NIXI Mumbai GPX", "description": "National Internet Exchange of India · Mumbai", "url": "https://ix.nixi.in/en/running-noc/mumbai2"}, {"lat": 19.114, "lon": 72.894, "value": 35.1, "count": 1, "label": "Nxtra Data Mumbai DC 2 · Nxtra Data Ltd · Mumbai", "name": "Nxtra Data Mumbai DC 2", "description": "Nxtra Data Ltd · Mumbai", "url": "http://www.nxtradata.com"}, {"lat": 19.115, "lon": 72.89, "value": 33.5, "count": 1, "label": "Netmagic Chandivali - MUM DC07 · NTTCINS · Mumbai", "name": "Netmagic Chandivali - MUM DC07", "description": "NTTCINS · Mumbai", "url": "https://services.global.ntt/en-us/"}, {"lat": 19.115, "lon": 72.89, "value": 29.7, "count": 1, "label": "Netmagic Chandivali - MUM DC06 · NTTCINS · Mumbai", "name": "Netmagic Chandivali - MUM DC06", "description": "NTTCINS · Mumbai", "url": "https://services.global.ntt/en-us/"}, {"lat": 47.614, "lon": -122.339, "value": 83.3, "count": 1, "label": "Digital Realty Seattle SEA10 · Digital Realty · Seattle", "name": "Digital Realty Seattle SEA10", "description": "Digital Realty · Seattle", "url": "https://www.digitalrealty.com"}, {"lat": 47.614, "lon": -122.339, "value": 71.7, "count": 1, "label": "Equinix SE2/SE3 - Seattle · Equinix, Inc. · Seattle", "name": "Equinix SE2/SE3 - Seattle", "description": "Equinix, Inc. · Seattle", "url": "https://www.equinix.com/locations/americas-colocation/united-states-colocation/seattle-data-centers/"}, {"lat": 47.619, "lon": -122.348, "value": 47.8, "count": 1, "label": "KOMO Plaza Seattle (Formerly Fisher Plaza) · GI Property Management · Seattle", "name": "KOMO Plaza Seattle (Formerly Fisher Plaza)", "description": "GI Property Management · Seattle", "url": "http://www.komoplaza.com/"}, {"lat": 47.493, "lon": -122.294, "value": 47.1, "count": 1, "label": "WowRack · Serverhosh Internet Service · Tukwila", "name": "WowRack", "description": "Serverhosh Internet Service · Tukwila", "url": "https://www.wowrack.com"}, {"lat": 47.493, "lon": -122.294, "value": 40.2, "count": 1, "label": "Sabey Intergate East Building 4 · Sabey Data Centers · Tukwila", "name": "Sabey Intergate East Building 4", "description": "Sabey Data Centers · Tukwila", "url": "https://sabeydatacenters.com"}, {"lat": 47.494, "lon": -122.294, "value": 37.9, "count": 1, "label": "Digital Fortress (TUK) · Digital Fortress · Tukwila", "name": "Digital Fortress (TUK)", "description": "Digital Fortress · Tukwila", "url": "https://digital-fortress.com"}, {"lat": 47.619, "lon": -122.336, "value": 36.6, "count": 1, "label": "H5 Data Centers Seattle · H5 Data Centers · Seattle", "name": "H5 Data Centers Seattle", "description": "H5 Data Centers · Seattle", "url": "http://h5datacenters.com/seattle-colocation.html"}, {"lat": 47.614, "lon": -122.339, "value": 36.6, "count": 1, "label": "Colocation Northwest - Seattle · IsoFusion / Colocation Northwest · Seattle", "name": "Colocation Northwest - Seattle", "description": "IsoFusion / Colocation Northwest · Seattle", "url": "https://www.colocationnorthwest.com/data-centers/seattle"}, {"lat": 47.619, "lon": -122.348, "value": 35.1, "count": 1, "label": "TierPoint Seattle · TierPoint, LLC · Seattle", "name": "TierPoint Seattle", "description": "TierPoint, LLC · Seattle", "url": "https://www.tierpoint.com"}, {"lat": 47.498, "lon": -122.29, "value": 33.5, "count": 1, "label": "EdgeConneX Seattle (EDCSEA01) · EdgeConneX Inc. · Tukwila", "name": "EdgeConneX Seattle (EDCSEA01)", "description": "EdgeConneX Inc. · Tukwila", "url": "http://www.edgeconnex.com"}, {"lat": 40.439, "lon": -3.621, "value": 83.1, "count": 1, "label": "Digital Realty Madrid MAD1-2 · Digital Realty · Madrid", "name": "Digital Realty Madrid MAD1-2", "description": "Digital Realty · Madrid", "url": "https://www.digitalrealty.com/data-centers/madrid/calle-albasanz-71-madrid-spain"}, {"lat": 40.537, "lon": -3.649, "value": 67.8, "count": 1, "label": "Equinix MD2 - Madrid · Equinix, Inc. · Alcobendas", "name": "Equinix MD2 - Madrid", "description": "Equinix, Inc. · Alcobendas", "url": "https://www.equinix.com/locations/spain-colocation/madrid-data-centers/md2/"}, {"lat": 40.434, "lon": -3.624, "value": 59.0, "count": 1, "label": "Digital Realty Madrid MAD3 · Digital Realty · Madrid", "name": "Digital Realty Madrid MAD3", "description": "Digital Realty · Madrid", "url": "https://www.digitalrealty.com/data-centers/madrid/49-calle-emilio-munoz-madrid-spain"}, {"lat": 40.466, "lon": -3.661, "value": 57.4, "count": 1, "label": "Espanix Datacenter · Asociación ESpanix · Madrid", "name": "Espanix Datacenter", "description": "Asociación ESpanix · Madrid", "url": "https://www.espanix.net/"}, {"lat": 40.439, "lon": -3.629, "value": 50.3, "count": 1, "label": "Digital Realty Madrid MAD4 · Digital Realty · Madrid", "name": "Digital Realty Madrid MAD4", "description": "Digital Realty · Madrid", "url": "https://www.digitalrealty.com/data-centers/emea/madrid/mad4"}, {"lat": 40.44, "lon": -3.624, "value": 46.4, "count": 1, "label": "IaaS Datacenter Madrid · IaaS Datacenter Madrid · Madrid", "name": "IaaS Datacenter Madrid", "description": "IaaS Datacenter Madrid · Madrid", "url": "https://iaas.es"}, {"lat": 40.448, "lon": -3.575, "value": 45.7, "count": 1, "label": "Global Switch Madrid · Global Switch · Madrid", "name": "Global Switch Madrid", "description": "Global Switch · Madrid", "url": "http://www.globalswitch.com/locations/madrid"}, {"lat": 40.446, "lon": -3.57, "value": 44.1, "count": 1, "label": "IPCore Datacenter Madrid · IPCore Datacenter SL · Madrid", "name": "IPCore Datacenter Madrid", "description": "IPCore Datacenter SL · Madrid", "url": "http://ipcore.com/"}, {"lat": 40.514, "lon": -3.672, "value": 42.3, "count": 1, "label": "Equinix MD1 - Madrid · Equinix, Inc. · Madrid", "name": "Equinix MD1 - Madrid", "description": "Equinix, Inc. · Madrid", "url": "https://www.equinix.com/locations/spain-colocation/madrid-data-centers/md1/"}, {"lat": 40.535, "lon": -3.648, "value": 39.1, "count": 1, "label": "DATA4 Madrid-Alcobendas - MAD1 · DATA4 s.a r.l · Alcobendas", "name": "DATA4 Madrid-Alcobendas - MAD1", "description": "DATA4 s.a r.l · Alcobendas", "url": "https://www.data4group.com/data-center-madrid-espagne/"}, {"lat": 40.49, "lon": -3.691, "value": 37.9, "count": 1, "label": "nLighten Madrid MAD1 · nLighten HQ BV · Madrid", "name": "nLighten Madrid MAD1", "description": "nLighten HQ BV · Madrid", "url": "https://www.nlighten.com/en/spain-data-centers/madrid/"}, {"lat": 40.566, "lon": -3.605, "value": 36.6, "count": 1, "label": "Cogent Madrid · Cogent Communications, Inc. · Madrid", "name": "Cogent Madrid", "description": "Cogent Communications, Inc. · Madrid", "url": "https://www.cogentco.com/en/network/service-locations?continent=&country=Spain&state=&metro=&site_type=CDC&action=search"}, {"lat": 43.311, "lon": 5.374, "value": 82.1, "count": 1, "label": "Digital Realty Marseille MRS1/2/3/4 · Digital Realty · Marseille", "name": "Digital Realty Marseille MRS1/2/3/4", "description": "Digital Realty · Marseille", "url": "https://www.interxion.com/"}, {"lat": 43.36, "lon": 5.338, "value": 50.8, "count": 1, "label": "Free Pro - Marseille - MRS1 · Free Pro · Marseille", "name": "Free Pro - Marseille - MRS1", "description": "Free Pro · Marseille", "url": "https://www.freepro.com"}, {"lat": 43.209, "lon": 5.609, "value": 21.1, "count": 1, "label": "ITinSell Cloud Datacenter · ITinSell Cloud · La Ciotat", "name": "ITinSell Cloud Datacenter", "description": "ITinSell Cloud · La Ciotat", "url": "http://www.aspserveur.com"}, {"lat": 43.128, "lon": 5.933, "value": 16.8, "count": 1, "label": "XL360 · Xavier Lafaure · Toulon", "name": "XL360", "description": "Xavier Lafaure · Toulon", "url": "https://www.xl360.fr/"}, {"lat": 43.343, "lon": 5.368, "value": 10.6, "count": 1, "label": "EXA Edge DC Marseille · EXA Infrastructure · Marseille", "name": "EXA Edge DC Marseille", "description": "EXA Infrastructure · Marseille", "url": "https://exainfra.net/services/colocation"}, {"lat": 43.312, "lon": 5.375, "value": 0.0, "count": 1, "label": "PHOCEA DC-M1 · PHOCEA DC · Marseille", "name": "PHOCEA DC-M1", "description": "PHOCEA DC · Marseille", "url": "https://www.phocea-dc.com"}, {"lat": -7.273, "lon": 112.743, "value": 80.8, "count": 1, "label": "OMADATA - E1 - SUB · PT Omadata Padma Indonesia · Surabaya", "name": "OMADATA - E1 - SUB", "description": "PT Omadata Padma Indonesia · Surabaya", "url": "http://www.omadata.com"}, {"lat": -7.273, "lon": 112.743, "value": 46.4, "count": 1, "label": "IIX-JawaTimur (IIX-JI1) · Asosiasi Penyelenggara Jasa Internet Indonesia · Surabaya", "name": "IIX-JawaTimur (IIX-JI1)", "description": "Asosiasi Penyelenggara Jasa Internet Indonesia · Surabaya", "url": "https://ji.iix.net.id"}, {"lat": -7.316, "lon": 112.77, "value": 36.6, "count": 1, "label": "SB1 · Princeton Digital Group · Surabaya", "name": "SB1", "description": "Princeton Digital Group · Surabaya", "url": "https://princetondg.com/locations/sb1/"}, {"lat": -7.273, "lon": 112.743, "value": 29.7, "count": 1, "label": "IIX-JI Datacenter · IIX Corp · Surabaya", "name": "IIX-JI Datacenter", "description": "IIX Corp · Surabaya", "url": "https://www.ji.iix.net.id"}, {"lat": -7.23, "lon": 112.735, "value": 27.3, "count": 1, "label": "neuCentrIX - Surabaya Kebalen · PT Telekomunikasi Indonesia Int · Surabaya", "name": "neuCentrIX - Surabaya Kebalen", "description": "PT Telekomunikasi Indonesia Int · Surabaya", "url": "https://www.neucentrix.co.id/"}, {"lat": -7.316, "lon": 112.769, "value": 21.1, "count": 1, "label": "XLSmart Surabaya (SNB) · PT XLSmart Telecom Sejahtera Tbk · Surabaya", "name": "XLSmart Surabaya (SNB)", "description": "PT XLSmart Telecom Sejahtera Tbk · Surabaya", "url": "https://www.xl.co.id/en/business/product/cloud-and-data-center/data-center"}, {"lat": -7.273, "lon": 112.743, "value": 21.1, "count": 1, "label": "Biznet Surabaya · Biznet Network · Surabaya, East Java", "name": "Biznet Surabaya", "description": "Biznet Network · Surabaya, East Java", "url": "https://www.biznetnetworks.com/portfolio/kota-surabaya"}, {"lat": -7.98, "lon": 112.63, "value": 21.1, "count": 1, "label": "neuCentrIX - Malang · PT Telekomunikasi Indonesia Int · Malang", "name": "neuCentrIX - Malang", "description": "PT Telekomunikasi Indonesia Int · Malang", "url": "https://www.neucentrix.co.id/"}, {"lat": -7.273, "lon": 112.743, "value": 21.1, "count": 1, "label": "DCI Indonesia (E2) · DCI Indonesia · Surabaya", "name": "DCI Indonesia (E2)", "description": "DCI Indonesia · Surabaya", "url": "https://dci-indonesia.com/"}, {"lat": -7.315, "lon": 112.765, "value": 16.8, "count": 1, "label": "Nusantara Data Center - Surabaya · MoraRepublic · Surabaya", "name": "Nusantara Data Center - Surabaya", "description": "MoraRepublic · Surabaya", "url": "http://nusantaradatacenter.com/contact-page/"}, {"lat": -7.943, "lon": 112.648, "value": 16.8, "count": 1, "label": "Biznet Malang · Biznet Network · Malang, East Java", "name": "Biznet Malang", "description": "Biznet Network · Malang, East Java", "url": "https://www.biznetnetworks.com/company/network/city/place/malang"}, {"lat": -33.922, "lon": 151.188, "value": 80.7, "count": 1, "label": "Equinix SY1/SY2 - Sydney · Equinix, Inc. · Sydney", "name": "Equinix SY1/SY2 - Sydney", "description": "Equinix, Inc. · Sydney", "url": "https://www.equinix.com/locations/asia-colocation/australia-colocation/sydney-data-centers/"}, {"lat": -33.912, "lon": 151.193, "value": 78.6, "count": 1, "label": "Equinix SY3 - Sydney · Equinix, Inc. · Sydney", "name": "Equinix SY3 - Sydney", "description": "Equinix, Inc. · Sydney", "url": "https://www.equinix.com/locations/asia-colocation/australia-colocation/sydney-data-centers/sy3/"}, {"lat": -33.918, "lon": 151.189, "value": 75.6, "count": 1, "label": "Equinix SY4 - Sydney · Equinix, Inc. · Sydney", "name": "Equinix SY4 - Sydney", "description": "Equinix, Inc. · Sydney", "url": "https://www.equinix.com/locations/asia-colocation/australia-colocation/sydney-data-centers/sy4/"}, {"lat": -33.785, "lon": 151.131, "value": 71.5, "count": 1, "label": "NEXTDC S1 · NEXTDC · Sydney", "name": "NEXTDC S1", "description": "NEXTDC · Sydney", "url": "http://www.nextdc.com"}, {"lat": -33.876, "lon": 151.198, "value": 70.8, "count": 1, "label": "DigiCo Sydney SYD1 (formerly Global Switch Australia) · DigiCo · Sydney", "name": "DigiCo Sydney SYD1 (formerly Global Switch Australia)", "description": "DigiCo · Sydney", "url": "http://www.iseek.com.au"}, {"lat": -33.918, "lon": 151.189, "value": 68.3, "count": 1, "label": "Equinix SY5 - Sydney · Equinix, Inc. · Sydney", "name": "Equinix SY5 - Sydney", "description": "Equinix, Inc. · Sydney", "url": "https://www.equinix.com/locations/asia-colocation/australia-colocation/sydney-data-centers/sy5/"}, {"lat": -33.785, "lon": 151.125, "value": 49.7, "count": 1, "label": "NEXTDC S2 · NEXTDC · Macquarie Park", "name": "NEXTDC S2", "description": "NEXTDC · Macquarie Park", "url": "http://www.nextdc.com"}, {"lat": -33.915, "lon": 151.194, "value": 44.1, "count": 1, "label": "Vocus Sydney SYD01 · Vocus Group · Sydney", "name": "Vocus Sydney SYD01", "description": "Vocus Group · Sydney", "url": "http://www.vocus.com.au"}, {"lat": -33.819, "lon": 151.185, "value": 44.1, "count": 1, "label": "NEXTDC S3 · NEXTDC · Artarmon", "name": "NEXTDC S3", "description": "NEXTDC · Artarmon", "url": "https://www.nextdc.com/"}, {"lat": -33.837, "lon": 151.053, "value": 42.3, "count": 1, "label": "Equinix SY6 - Sydney (formerly Metronode Sydney 2) · Equinix, Inc. · Silverwater", "name": "Equinix SY6 - Sydney (formerly Metronode Sydney 2)", "description": "Equinix, Inc. · Silverwater", "url": "https://www.equinix.com/locations/asia-colocation/australia-colocation/sydney-data-centers/sy6/"}, {"lat": -33.872, "lon": 151.195, "value": 33.5, "count": 1, "label": "5GN Sydney Data Centre (SDC) · 5G Networks · Pyrmont", "name": "5GN Sydney Data Centre (SDC)", "description": "5G Networks · Pyrmont", "url": "https://5gnetworks.com.au/"}, {"lat": -33.781, "lon": 151.127, "value": 27.3, "count": 1, "label": "Intellicentre 2 (IC2) · Macquarie Corporate Telecommunications · Macquarie Park", "name": "Intellicentre 2 (IC2)", "description": "Macquarie Corporate Telecommunications · Macquarie Park", "url": "https://macquariedatacentres.com/"}, {"lat": 19.141, "lon": 73.009, "value": 80.3, "count": 1, "label": "Web Werks Mumbai 1 · Web Werks DataCenter Pvt. Ltd. · Mumbai", "name": "Web Werks Mumbai 1", "description": "Web Werks DataCenter Pvt. Ltd. · Mumbai", "url": "http://www.webwerks.in"}, {"lat": 19.108, "lon": 73.024, "value": 57.4, "count": 1, "label": "CtrlS Mumbai DC1 · CtrlS Datacenters Ltd · Mumbai", "name": "CtrlS Mumbai DC1", "description": "CtrlS Datacenters Ltd · Mumbai", "url": "http://www.ctrls.in"}, {"lat": 19.108, "lon": 73.024, "value": 40.2, "count": 1, "label": "CtrlS Mumbai DC2 · CtrlS Datacenters Ltd · Mumbai", "name": "CtrlS Mumbai DC2", "description": "CtrlS Datacenters Ltd · Mumbai", "url": "https://www.ctrls.in/data-center-services.php"}, {"lat": 19.11, "lon": 73.024, "value": 27.3, "count": 1, "label": "CtrlS Mumbai DC3 · CtrlS Datacenters Ltd · Mumbai", "name": "CtrlS Mumbai DC3", "description": "CtrlS Datacenters Ltd · Mumbai", "url": "https://www.ctrls.in/data-center-services.php"}, {"lat": 19.24, "lon": 73.129, "value": 24.5, "count": 1, "label": "Extreme Kalyan · Extreme Infocom Pvt. Ltd. · Kalyan", "name": "Extreme Kalyan", "description": "Extreme Infocom Pvt. Ltd. · Kalyan", "url": "http://www.extreme-ix.org"}, {"lat": 19.141, "lon": 73.009, "value": 24.5, "count": 1, "label": "Iron Mountain Data Center - Mumbai (MUM-1) · Iron Mountain Data Centers · Navi Mumbai", "name": "Iron Mountain Data Center - Mumbai (MUM-1)", "description": "Iron Mountain Data Centers · Navi Mumbai", "url": "https://www.ironmountain.com/data-centers/locations/mumbai-data-center"}, {"lat": 19.996, "lon": 73.747, "value": 21.1, "count": 1, "label": "ESDS Nashik · ESDS Software Solution Ltd. · Nashik", "name": "ESDS Nashik", "description": "ESDS Software Solution Ltd. · Nashik", "url": "https://www.esds.co.in/"}, {"lat": 19.141, "lon": 73.008, "value": 21.1, "count": 1, "label": "Iron Mountain Data Center - Mumbai (MUM-2) · Iron Mountain Data Centers · Navi Mumbai", "name": "Iron Mountain Data Center - Mumbai (MUM-2)", "description": "Iron Mountain Data Centers · Navi Mumbai", "url": "https://www.ironmountain.com/data-centers/locations/mumbai-data-center"}, {"lat": 19.109, "lon": 73.025, "value": 21.1, "count": 1, "label": "CtrlS Mumbai DC4 · CtrlS Datacenters Ltd · Mumbai", "name": "CtrlS Mumbai DC4", "description": "CtrlS Datacenters Ltd · Mumbai", "url": "https://www.ctrls.com/datacenter-mumbai"}, {"lat": 19.109, "lon": 73.025, "value": 21.1, "count": 1, "label": "CtrlS Mumbai DC5 · CtrlS Datacenters Ltd · Navi Mumbai", "name": "CtrlS Mumbai DC5", "description": "CtrlS Datacenters Ltd · Navi Mumbai", "url": "https://www.ctrls.com/datacenter-mumbai"}, {"lat": 19.103, "lon": 73.022, "value": 16.8, "count": 1, "label": "ESDS Mumbai · ESDS Software Solution Ltd. · Navi Mumbai", "name": "ESDS Mumbai", "description": "ESDS Software Solution Ltd. · Navi Mumbai", "url": "https://www.esds.co.in/"}, {"lat": 19.172, "lon": 73.024, "value": 16.8, "count": 1, "label": "NTT NAV01 Mahape · NTTCINS · Navi Mumbai", "name": "NTT NAV01 Mahape", "description": "NTTCINS · Navi Mumbai", "url": "https://services.global.ntt/en-us/services-and-products/global-data-centers/global-locations/india/navi-mumbai-data-center"}, {"lat": -33.971, "lon": 18.465, "value": 80.2, "count": 1, "label": "Teraco CT1 Cape Town, South Africa · Teraco Data Environments Pty Ltd · Cape Town", "name": "Teraco CT1 Cape Town, South Africa", "description": "Teraco Data Environments Pty Ltd · Cape Town", "url": "http://www.teraco.co.za/"}, {"lat": -33.907, "lon": 18.679, "value": 46.4, "count": 1, "label": "Teraco CT2 Cape Town, South Africa · Teraco Data Environments Pty Ltd · Cape Town", "name": "Teraco CT2 Cape Town, South Africa", "description": "Teraco Data Environments Pty Ltd · Cape Town", "url": "https://www.teraco.co.za"}, {"lat": -33.959, "lon": 18.477, "value": 37.9, "count": 1, "label": "OADC CPT1 - Cape Town · Open Access Data Centres · Cape Town", "name": "OADC CPT1 - Cape Town", "description": "Open Access Data Centres · Cape Town", "url": "https://www.openaccessdc.net/"}, {"lat": -33.839, "lon": 18.973, "value": 0.0, "count": 1, "label": "Beonline 24/7 · BEONLINE TWENTY FOUR SEVEN INTERNET GROUP · Groot Drakenstein", "name": "Beonline 24/7", "description": "BEONLINE TWENTY FOUR SEVEN INTERNET GROUP · Groot Drakenstein", "url": "http://www.paarlonline.co.za"}, {"lat": 48.269, "lon": 16.411, "value": 80.1, "count": 1, "label": "Digital Realty Vienna VIE1-2 · Digital Realty · Vienna", "name": "Digital Realty Vienna VIE1-2", "description": "Digital Realty · Vienna", "url": "https://www.interxion.com/"}, {"lat": 48.159, "lon": 16.339, "value": 58.4, "count": 1, "label": "NTT Vienna1 Data Center (VIE1) · NTT DATA's Global Data Centers division · Vienna", "name": "NTT Vienna1 Data Center (VIE1)", "description": "NTT DATA's Global Data Centers division · Vienna", "url": "https://datacenter.hello.global.ntt/en/location/vienna/vienna-1-data-center"}, {"lat": 48.214, "lon": 16.358, "value": 49.7, "count": 1, "label": "Vienna University Computer Center (Wien) · University of Vienna · Vienna", "name": "Vienna University Computer Center (Wien)", "description": "University of Vienna · Vienna", "url": "http://zid.univie.ac.at"}, {"lat": 48.193, "lon": 16.353, "value": 46.4, "count": 1, "label": "DATASIX Vienna (VIE1) · DATASIX Rechenzentrumsbetriebs GmbH · Vienna", "name": "DATASIX Vienna (VIE1)", "description": "DATASIX Rechenzentrumsbetriebs GmbH · Vienna", "url": "http://www.datasix.at"}, {"lat": 48.18, "lon": 16.364, "value": 40.2, "count": 1, "label": "Nessus NDC1 · NESSUS · Vienna", "name": "Nessus NDC1", "description": "NESSUS · Vienna", "url": "http://www.nessus.at"}, {"lat": 48.213, "lon": 16.356, "value": 35.1, "count": 1, "label": "VIVI Vienna (Wien) · KAPPER NETWORK-COMMUNICATIONS GmbH · Vienna", "name": "VIVI Vienna (Wien)", "description": "KAPPER NETWORK-COMMUNICATIONS GmbH · Vienna", "url": "https://kapper.net"}, {"lat": 48.271, "lon": 16.433, "value": 31.7, "count": 1, "label": "ODC21 (IBM colocation site) · ODC21 (IBM colocation site) · Vienna", "name": "ODC21 (IBM colocation site)", "description": "ODC21 (IBM colocation site) · Vienna", "url": "https://www.ibm.com"}, {"lat": 48.214, "lon": 16.378, "value": 29.7, "count": 1, "label": "Raiffeisen Diana Haus (RDH) · Raiffeisen Informatik GmbH & Co KG · Vienna", "name": "Raiffeisen Diana Haus (RDH)", "description": "Raiffeisen Informatik GmbH & Co KG · Vienna", "url": "http://www.r-it.at/"}, {"lat": 48.124, "lon": 16.323, "value": 27.3, "count": 1, "label": "ITandTEL Voesendorf/Vienna · eww ag · Voesendorf", "name": "ITandTEL Voesendorf/Vienna", "description": "eww ag · Voesendorf", "url": "http://www.itandtel.at"}, {"lat": 48.232, "lon": 16.458, "value": 27.3, "count": 1, "label": "Raiffeisen Informatik Data Center (RDC) · Raiffeisen Informatik GmbH & Co KG · Vienna", "name": "Raiffeisen Informatik Data Center (RDC)", "description": "Raiffeisen Informatik GmbH & Co KG · Vienna", "url": "http://www.r-it.at/"}, {"lat": 48.243, "lon": 16.365, "value": 27.3, "count": 1, "label": "next layer Medienhaus · next layer Telekommunikationsdienstleistungs- und Beratungs GmbH · Vienna", "name": "next layer Medienhaus", "description": "next layer Telekommunikationsdienstleistungs- und Beratungs GmbH · Vienna", "url": "http://www.nextlayer.com"}, {"lat": 33.755, "lon": -84.392, "value": 80.1, "count": 1, "label": "Digital Realty ATL (56 Marietta) · Digital Realty · Atlanta", "name": "Digital Realty ATL (56 Marietta)", "description": "Digital Realty · Atlanta", "url": "https://www.digitalrealty.com"}, {"lat": 33.762, "lon": -84.391, "value": 66.0, "count": 1, "label": "Digital Realty ATL (250 Williams) · Digital Realty · Atlanta", "name": "Digital Realty ATL (250 Williams)", "description": "Digital Realty · Atlanta", "url": "https://www.digitalrealty.com"}, {"lat": 33.756, "lon": -84.391, "value": 65.2, "count": 1, "label": "CoreSite - Atlanta (AT1) · CoreSite · Atlanta", "name": "CoreSite - Atlanta (AT1)", "description": "CoreSite · Atlanta", "url": "http://www.coresite.com"}, {"lat": 33.755, "lon": -84.392, "value": 49.1, "count": 1, "label": "Equinix AT2/AT3 - Atlanta · Equinix, Inc. · Atlanta", "name": "Equinix AT2/AT3 - Atlanta", "description": "Equinix, Inc. · Atlanta", "url": "http://www.equinix.com/"}, {"lat": 33.778, "lon": -84.421, "value": 47.8, "count": 1, "label": "QTS Atlanta-Metro (ATL1) · QTS Realty Trust, Inc. · Atlanta", "name": "QTS Atlanta-Metro (ATL1)", "description": "QTS Realty Trust, Inc. · Atlanta", "url": "http://www.qtsdatacenters.com/data-centers/atlanta-metro"}, {"lat": 33.756, "lon": -84.391, "value": 40.2, "count": 1, "label": "Cogent Atlanta · Cogent Communications, Inc. · Atlanta", "name": "Cogent Atlanta", "description": "Cogent Communications, Inc. · Atlanta", "url": "https://www.cogentco.com/en/network/service-locations?continent=North+America&country=United+States&state=GA&metro=Atlanta&site_type=CDC&action=search"}, {"lat": 33.729, "lon": -84.42, "value": 39.1, "count": 1, "label": "EdgeConneX Atlanta (EDCATL01) · EdgeConneX Inc. · Atlanta", "name": "EdgeConneX Atlanta (EDCATL01)", "description": "EdgeConneX Inc. · Atlanta", "url": "http://www.edgeconnex.com"}, {"lat": 33.89, "lon": -84.465, "value": 39.1, "count": 1, "label": "Coloblox Data Centers ATL1 · Coloblox Data Centers Inc · Atlanta", "name": "Coloblox Data Centers ATL1", "description": "Coloblox Data Centers Inc · Atlanta", "url": "https://coloblox.com"}, {"lat": 33.761, "lon": -84.391, "value": 36.6, "count": 1, "label": "Evocative ATL1 · VPLS · Atlanta", "name": "Evocative ATL1", "description": "VPLS · Atlanta", "url": "https://www.evocative.com/"}, {"lat": 33.776, "lon": -84.388, "value": 36.6, "count": 1, "label": "Databank Atlanta (ATL1) · DataBank, Ltd. · Atlanta", "name": "Databank Atlanta (ATL1)", "description": "DataBank, Ltd. · Atlanta", "url": "https://www.databank.com/data-centers/atlanta/760-peachtree-street/"}, {"lat": 33.744, "lon": -84.583, "value": 33.5, "count": 1, "label": "Centersquare Atlanta (ATL1-A/B/C) · Centersquare · Lithia Springs", "name": "Centersquare Atlanta (ATL1-A/B/C)", "description": "Centersquare · Lithia Springs", "url": "https://centersquaredc.com/data-centers/atlanta"}, {"lat": 42.703, "lon": 23.306, "value": 79.3, "count": 1, "label": "TELEPOINT Sofia Centre · Telepoint OOD · Sofia", "name": "TELEPOINT Sofia Centre", "description": "Telepoint OOD · Sofia", "url": "https://www.telepoint.bg/"}, {"lat": 42.669, "lon": 23.395, "value": 62.2, "count": 1, "label": "Equinix SO1 - Sofia · Equinix, Inc. · Sofia", "name": "Equinix SO1 - Sofia", "description": "Equinix, Inc. · Sofia", "url": "https://www.equinix.com/locations/bulgaria-colocation/sofia-data-centers/so1/"}, {"lat": 42.673, "lon": 23.383, "value": 59.7, "count": 1, "label": "TELEPOINT Sofia East · Telepoint OOD · Sofia", "name": "TELEPOINT Sofia East", "description": "Telepoint OOD · Sofia", "url": "https://www.telepoint.bg/"}, {"lat": 42.676, "lon": 23.401, "value": 54.2, "count": 1, "label": "Equinix SO2 - Sofia · Equinix, Inc. · Sofia", "name": "Equinix SO2 - Sofia", "description": "Equinix, Inc. · Sofia", "url": "https://www.equinix.com/locations/bulgaria-colocation/sofia-data-centers/so2/"}, {"lat": 42.674, "lon": 23.368, "value": 41.3, "count": 1, "label": "Evolink Data Center Sofia 1 · EVOLINK EAD · Sofia", "name": "Evolink Data Center Sofia 1", "description": "EVOLINK EAD · Sofia", "url": "http://www.evolink.com/services/colocation/evolink-datacenter-sofia-1"}, {"lat": 42.677, "lon": 23.26, "value": 36.6, "count": 1, "label": "Evolink Data Center Sofia 2 · EVOLINK EAD · Sofia", "name": "Evolink Data Center Sofia 2", "description": "EVOLINK EAD · Sofia", "url": "http://www.evolink.com/services/colocation/evolink-datacenter-sofia-2"}, {"lat": 42.694, "lon": 23.324, "value": 24.5, "count": 1, "label": "BTC Core Network Sofia · Vivacom Bulgaria EAD · Sofia", "name": "BTC Core Network Sofia", "description": "Vivacom Bulgaria EAD · Sofia", "url": "http://www.vivacom.bg"}, {"lat": 42.656, "lon": 23.369, "value": 24.5, "count": 1, "label": "Sofia Data Center (SDC) Stolnik · Neterra Ltd. · Stolnik", "name": "Sofia Data Center (SDC) Stolnik", "description": "Neterra Ltd. · Stolnik", "url": "https://sdc.bg/sdc-stolnik"}, {"lat": 42.656, "lon": 23.369, "value": 21.1, "count": 1, "label": "Sofia Data Center (SDC) 2 · Neterra Ltd. · Sofia", "name": "Sofia Data Center (SDC) 2", "description": "Neterra Ltd. · Sofia", "url": "http://www.neterra.net/"}, {"lat": -22.871, "lon": -43.273, "value": 79.1, "count": 1, "label": "Equinix RJ2 - Rio de Janeiro · Equinix, Inc. · Rio de Janeiro", "name": "Equinix RJ2 - Rio de Janeiro", "description": "Equinix, Inc. · Rio de Janeiro", "url": "https://www.equinix.com/locations/americas-colocation/brazil-colocation/rio-de-janeiro-data-centers/rj2/"}, {"lat": -22.905, "lon": -43.218, "value": 71.5, "count": 1, "label": "Cirion Rio de Janeiro - RIO1 · Cirion · Rio de Janeiro", "name": "Cirion Rio de Janeiro - RIO1", "description": "Cirion · Rio de Janeiro", "url": "http://www.ciriontechnologies.com"}, {"lat": -22.91, "lon": -43.204, "value": 65.8, "count": 1, "label": "Teleporto Rio de Janeiro · Megatelecom Telecomunicacoes Ltda · Rio de Janeiro", "name": "Teleporto Rio de Janeiro", "description": "Megatelecom Telecomunicacoes Ltda · Rio de Janeiro", "url": "http://www.internexa.com"}, {"lat": -22.955, "lon": -43.195, "value": 60.8, "count": 1, "label": "Equinix RJ1 - Rio de Janeiro · Equinix, Inc. · Rio de Janeiro", "name": "Equinix RJ1 - Rio de Janeiro", "description": "Equinix, Inc. · Rio de Janeiro", "url": "https://www.equinix.com/locations/americas-colocation/brazil-colocation/rio-de-janeiro-data-centers/rj1/"}, {"lat": -22.908, "lon": -43.221, "value": 46.4, "count": 1, "label": "Datacenter UFINET BRASIL (Novo Teleporto) · Ufinet Brasil RJ S.A. · Rio de Janeiro", "name": "Datacenter UFINET BRASIL (Novo Teleporto)", "description": "Ufinet Brasil RJ S.A. · Rio de Janeiro", "url": "http://www.nbtelecom.com.br"}, {"lat": -22.991, "lon": -43.445, "value": 44.1, "count": 1, "label": "Tecto TGIG1 (ex Globenet CLS RJ) · Tecto Data Centers · Rio de Janeiro", "name": "Tecto TGIG1 (ex Globenet CLS RJ)", "description": "Tecto Data Centers · Rio de Janeiro", "url": "https://tecto.com/"}, {"lat": -22.91, "lon": -43.204, "value": 37.9, "count": 1, "label": "BR.Digital Rio de Janeiro (RJO1) · BR.Digital · Rio de Janeiro", "name": "BR.Digital Rio de Janeiro (RJO1)", "description": "BR.Digital · Rio de Janeiro", "url": "https://br.digital/"}, {"lat": -22.805, "lon": -43.335, "value": 31.7, "count": 1, "label": "Ascenty RJO01 - Rio de Janeiro · Ascenty DataCenters e Telecom · Rio de Janeiro", "name": "Ascenty RJO01 - Rio de Janeiro", "description": "Ascenty DataCenters e Telecom · Rio de Janeiro", "url": "https://www.ascenty.com/data-centers/rio-de-janeiro/rio-de-janeiro-1/"}, {"lat": -22.91, "lon": -43.204, "value": 29.7, "count": 1, "label": "Linkfull Rio de Janeiro · Linkfull Corporate · Rio de Janeiro", "name": "Linkfull Rio de Janeiro", "description": "Linkfull Corporate · Rio de Janeiro", "url": "http://www.linkfull.com.br"}, {"lat": -22.805, "lon": -43.335, "value": 27.3, "count": 1, "label": "Ascenty RJO02 - Rio de Janeiro · Ascenty DataCenters e Telecom · Rio de Janeiro", "name": "Ascenty RJO02 - Rio de Janeiro", "description": "Ascenty DataCenters e Telecom · Rio de Janeiro", "url": "https://www.ascenty.com/data-centers/rio-de-janeiro/rio-de-janeiro-2//"}, {"lat": -22.53, "lon": -43.217, "value": 21.1, "count": 1, "label": "LNCC · Laboratorio Nacional de Computacao Cientifica · Rio de Janeiro", "name": "LNCC", "description": "Laboratorio Nacional de Computacao Cientifica · Rio de Janeiro", "url": "http://www.lncc.br"}, {"lat": 32.801, "lon": -96.82, "value": 78.3, "count": 1, "label": "Equinix DA1 - Dallas · Equinix, Inc. · Dallas", "name": "Equinix DA1 - Dallas", "description": "Equinix, Inc. · Dallas", "url": "https://www.equinix.com/locations/americas-colocation/united-states-colocation/dallas-data-centers/da1/"}, {"lat": 32.801, "lon": -96.82, "value": 70.8, "count": 1, "label": "Equinix DA3 - Dallas · Equinix, Inc. · Dallas", "name": "Equinix DA3 - Dallas", "description": "Equinix, Inc. · Dallas", "url": "https://www.equinix.com/locations/americas-colocation/united-states-colocation/dallas-data-centers/da3/"}, {"lat": 32.801, "lon": -96.819, "value": 66.8, "count": 1, "label": "Equinix DA6 - Dallas · Equinix, Inc. · Dallas", "name": "Equinix DA6 - Dallas", "description": "Equinix, Inc. · Dallas", "url": "https://www.equinix.com/locations/americas-colocation/united-states-colocation/dallas-data-centers/da6/"}, {"lat": 32.787, "lon": -96.794, "value": 63.2, "count": 1, "label": "Digital Realty DFW (2323 Bryan St) · Digital Realty · Dallas", "name": "Digital Realty DFW (2323 Bryan St)", "description": "Digital Realty · Dallas", "url": "https://www.digitalrealty.com"}, {"lat": 32.801, "lon": -96.819, "value": 62.4, "count": 1, "label": "Equinix DA - Dallas (previously Infomart Dallas) · Equinix, Inc. · Dallas", "name": "Equinix DA - Dallas (previously Infomart Dallas)", "description": "Equinix, Inc. · Dallas", "url": "https://www.equinix.com"}, {"lat": 32.801, "lon": -96.821, "value": 61.1, "count": 1, "label": "Equinix DA11 - Dallas · Equinix, Inc. · Dallas", "name": "Equinix DA11 - Dallas", "description": "Equinix, Inc. · Dallas", "url": "https://www.equinix.com/locations/americas-colocation/united-states-colocation/dallas-data-centers/da11/"}, {"lat": 32.801, "lon": -96.82, "value": 59.7, "count": 1, "label": "Equinix DA2 - Dallas · Equinix, Inc. · Dallas", "name": "Equinix DA2 - Dallas", "description": "Equinix, Inc. · Dallas", "url": "https://www.equinix.com/locations/americas-colocation/united-states-colocation/dallas-data-centers/da2/"}, {"lat": 32.838, "lon": -96.878, "value": 58.1, "count": 1, "label": "Evocative DA4 · VPLS · Dallas", "name": "Evocative DA4", "description": "VPLS · Dallas", "url": "https://www.evocative.com/"}, {"lat": 32.778, "lon": -96.798, "value": 57.7, "count": 1, "label": "DataBank Dallas (DFW1) · DataBank, Ltd. · Dallas", "name": "DataBank Dallas (DFW1)", "description": "DataBank, Ltd. · Dallas", "url": "https://www.databank.com/data-centers/dallas/dfw1/"}, {"lat": 32.787, "lon": -96.794, "value": 50.3, "count": 1, "label": "Equinix DA4 - Dallas · Equinix, Inc. · Dallas", "name": "Equinix DA4 - Dallas", "description": "Equinix, Inc. · Dallas", "url": "https://www.equinix.com/locations/americas-colocation/united-states-colocation/dallas-data-centers/da4/"}, {"lat": 32.801, "lon": -96.819, "value": 48.5, "count": 1, "label": "Cologix DAL1 · Cologix, Inc. · Dallas", "name": "Cologix DAL1", "description": "Cologix, Inc. · Dallas", "url": "http://www.cologix.com"}, {"lat": 32.801, "lon": -96.819, "value": 44.1, "count": 1, "label": "DataBank Dallas (DFW5) · DataBank, Ltd. · Dallas", "name": "DataBank Dallas (DFW5)", "description": "DataBank, Ltd. · Dallas", "url": "https://www.databank.com/data-centers/dallas/dfw5/"}, {"lat": 40.718, "lon": -74.008, "value": 77.9, "count": 1, "label": "Digital Realty NYC (60 Hudson) · Digital Realty · New York", "name": "Digital Realty NYC (60 Hudson)", "description": "Digital Realty · New York", "url": "https://www.digitalrealty.com"}, {"lat": 40.741, "lon": -74.003, "value": 74.5, "count": 1, "label": "Digital Realty NYC (111 8th Ave) · Digital Realty · New York", "name": "Digital Realty NYC (111 8th Ave)", "description": "Digital Realty · New York", "url": "https://www.digitalrealty.com"}, {"lat": 40.779, "lon": -74.072, "value": 74.5, "count": 1, "label": "Equinix NY2/NY4/NY5/NY6 - New York, Secaucus · Equinix, Inc. · Secaucus", "name": "Equinix NY2/NY4/NY5/NY6 - New York, Secaucus", "description": "Equinix, Inc. · Secaucus", "url": "https://www.equinix.com/locations/americas-colocation/united-states-colocation/new-york-data-centers/"}, {"lat": 40.737, "lon": -74.173, "value": 71.8, "count": 1, "label": "165 Halsey Meet-Me Room · Tishman Real Estate Services · Newark", "name": "165 Halsey Meet-Me Room", "description": "Tishman Real Estate Services · Newark", "url": "http://www.165halsey.com/"}, {"lat": 40.741, "lon": -74.003, "value": 66.8, "count": 1, "label": "Equinix NY9 - New York, 111 8th Avenue · Equinix, Inc. · New York", "name": "Equinix NY9 - New York, 111 8th Avenue", "description": "Equinix, Inc. · New York", "url": "https://www.equinix.com/locations/americas-colocation/united-states-colocation/new-york-data-centers/ny9/"}, {"lat": 40.743, "lon": -74.008, "value": 59.4, "count": 1, "label": "Telehouse - New York Chelsea · Telehouse - Global Data Centers · New York", "name": "Telehouse - New York Chelsea", "description": "Telehouse - Global Data Centers · New York", "url": "http://www.telehouse.com/"}, {"lat": 40.72, "lon": -74.005, "value": 56.6, "count": 1, "label": "Digital Realty NYC (32 AofA) · Digital Realty · New York", "name": "Digital Realty NYC (32 AofA)", "description": "Digital Realty · New York", "url": "https://www.digitalrealty.com"}, {"lat": 40.606, "lon": -74.174, "value": 56.6, "count": 1, "label": "Telehouse - Teleport Center (New York) · Telehouse - Global Data Centers · Staten Island", "name": "Telehouse - Teleport Center (New York)", "description": "Telehouse - Global Data Centers · Staten Island", "url": "http://www.telehouse.com"}, {"lat": 40.737, "lon": -74.173, "value": 55.5, "count": 1, "label": "Equinix NY1 - New York, Newark · Equinix, Inc. · Newark", "name": "Equinix NY1 - New York, Newark", "description": "Equinix, Inc. · Newark", "url": "https://www.equinix.com/locations/americas-colocation/united-states-colocation/new-york-data-centers/ny1/"}, {"lat": 40.72, "lon": -74.005, "value": 55.1, "count": 1, "label": "CoreSite - New York (NY1) · CoreSite · New York", "name": "CoreSite - New York (NY1)", "description": "CoreSite · New York", "url": "http://www.coresite.com"}, {"lat": 40.557, "lon": -74.485, "value": 54.7, "count": 1, "label": "QTS Piscataway (PNJ1) · QTS Realty Trust, Inc. · Piscataway", "name": "QTS Piscataway (PNJ1)", "description": "QTS Realty Trust, Inc. · Piscataway", "url": "http://www.qtsdatacenters.com/data-centers/piscataway"}, {"lat": 50.551, "lon": 30.63, "value": 77.6, "count": 1, "label": "NewTelco Kiev · NewTelco Ukraine · Kyiv", "name": "NewTelco Kiev", "description": "NewTelco Ukraine · Kyiv", "url": "http://www.newtelco.ua/"}, {"lat": 50.445, "lon": 30.51, "value": 66.0, "count": 1, "label": "Ucomline Kiev · Ucomline (Digital Generation) · Kyiv", "name": "Ucomline Kiev", "description": "Ucomline (Digital Generation) · Kyiv", "url": "https://www.peeringdb.com/"}, {"lat": 50.445, "lon": 30.51, "value": 58.7, "count": 1, "label": "9 Leontovicha · NetAssist LLC · Kyiv", "name": "9 Leontovicha", "description": "NetAssist LLC · Kyiv", "url": "http://www.netassist.ua/"}, {"lat": 50.445, "lon": 30.51, "value": 49.1, "count": 1, "label": "TSUA · TSUA · Kyiv", "name": "TSUA", "description": "TSUA · Kyiv", "url": "http://www.tsua.net/"}, {"lat": 50.493, "lon": 30.493, "value": 48.5, "count": 1, "label": "BeMobile · BeMobile · Kyiv", "name": "BeMobile", "description": "BeMobile · Kyiv", "url": "http://bemobile.ua/"}, {"lat": 50.433, "lon": 30.399, "value": 45.7, "count": 1, "label": "Data Center Ukr-Com · UKRCOM LLC · Kyiv", "name": "Data Center Ukr-Com", "description": "UKRCOM LLC · Kyiv", "url": "https://www.ukr-com.net/data-tsentr-g50/"}, {"lat": 50.448, "lon": 30.425, "value": 44.1, "count": 1, "label": "Omega Telecom Kyiv · Omega Telecom LLC · Kyiv", "name": "Omega Telecom Kyiv", "description": "Omega Telecom LLC · Kyiv", "url": "http://omegatelecom.ua/"}, {"lat": 50.445, "lon": 30.51, "value": 42.3, "count": 1, "label": "TOPNET/UA/Leontovicha9 · TOPNET · Kyiv", "name": "TOPNET/UA/Leontovicha9", "description": "TOPNET · Kyiv", "url": "http://www.topnet.ua/"}, {"lat": 50.451, "lon": 30.449, "value": 40.2, "count": 1, "label": "Datagroup Kiev · Datagroup JSC · Kyiv", "name": "Datagroup Kiev", "description": "Datagroup JSC · Kyiv", "url": "https://www.datagroup.ua/en"}, {"lat": 50.445, "lon": 30.511, "value": 40.2, "count": 1, "label": "KievNet/L9 · Kyiv Optic Networks ltd · Kyiv", "name": "KievNet/L9", "description": "Kyiv Optic Networks ltd · Kyiv", "url": "http://www.kievnet.ua/"}, {"lat": 50.45, "lon": 30.539, "value": 35.1, "count": 1, "label": "Parkovyi DC · Ante Mediam LLC · Kyiv", "name": "Parkovyi DC", "description": "Ante Mediam LLC · Kyiv", "url": "https://datapark.com.ua"}, {"lat": 50.431, "lon": 30.469, "value": 35.1, "count": 1, "label": "Data Center Uniteddc · United DC Data Center · Kyiv", "name": "Data Center Uniteddc", "description": "United DC Data Center · Kyiv", "url": "https://uniteddc.net.ua/data-center/"}, {"lat": -34.607, "lon": -58.379, "value": 77.5, "count": 1, "label": "Cabase BUE · Cámara Argentina de Internet (CABASE) · Buenos Aires", "name": "Cabase BUE", "description": "Cámara Argentina de Internet (CABASE) · Buenos Aires", "url": "https://ixp.cabase.org.ar"}, {"lat": -34.59, "lon": -58.467, "value": 65.8, "count": 1, "label": "Cirion Buenos Aires - BUE1 · Cirion · Buenos Aires", "name": "Cirion Buenos Aires - BUE1", "description": "Cirion · Buenos Aires", "url": "http://www.ciriontechnologies.com"}, {"lat": -34.475, "lon": -58.665, "value": 57.4, "count": 1, "label": "Pacheco Datacenter EZE1 Argentina Buenos Aires · TELECOM ARGENTINA · Buenos Aires", "name": "Pacheco Datacenter EZE1 Argentina Buenos Aires", "description": "TELECOM ARGENTINA · Buenos Aires", "url": "https://youtu.be/tC_t7KMDFWw"}, {"lat": -34.607, "lon": -58.379, "value": 44.9, "count": 1, "label": "Datacenter SYT · Servicios y Telecomunicaciones S.A. · Buenos Aires", "name": "Datacenter SYT", "description": "Servicios y Telecomunicaciones S.A. · Buenos Aires", "url": "http://www.syt.com"}, {"lat": -34.612, "lon": -58.379, "value": 39.1, "count": 1, "label": "Metrotel - CPS Comunicaciones · Metrotel · Buenos Aires", "name": "Metrotel - CPS Comunicaciones", "description": "Metrotel · Buenos Aires", "url": "http://www.metrotel.com.ar/cl-colocation-datacenter/"}, {"lat": -34.645, "lon": -58.372, "value": 39.1, "count": 1, "label": "Telxius Barracas, Buenos Aires · Telxius Cable · Buenos Aires", "name": "Telxius Barracas, Buenos Aires", "description": "Telxius Cable · Buenos Aires", "url": "https://telxius.com/cable/colocation/"}, {"lat": -34.417, "lon": -58.958, "value": 35.1, "count": 1, "label": "EdgeConneX Buenos Aires (EDCBUE01) · EdgeConneX Inc. · Pilar", "name": "EdgeConneX Buenos Aires (EDCBUE01)", "description": "EdgeConneX Inc. · Pilar", "url": "http://www.edgeconnex.com"}, {"lat": -34.607, "lon": -58.379, "value": 31.7, "count": 1, "label": "EdgeUno Datacenter Buenos Aires Argentina (EZE1) · EdgeUno, Inc. · Buenos Aires", "name": "EdgeUno Datacenter Buenos Aires Argentina (EZE1)", "description": "EdgeUno, Inc. · Buenos Aires", "url": "http://www.edgeuno.com"}, {"lat": -34.633, "lon": -58.791, "value": 31.7, "count": 1, "label": "LINKEAR SRL · LINKEAR SRL · Moreno", "name": "LINKEAR SRL", "description": "LINKEAR SRL · Moreno", "url": "https://linkear.com.ar/datacenter/"}, {"lat": -34.641, "lon": -58.404, "value": 27.3, "count": 1, "label": "IPLAN (NSS) - RINGO DCI · IPLAN (NSS) · Buenos Aires", "name": "IPLAN (NSS) - RINGO DCI", "description": "IPLAN (NSS) · Buenos Aires", "url": "http://www.iplan.com.ar"}, {"lat": -34.448, "lon": -58.794, "value": 27.3, "count": 1, "label": "Cabase NGB · Cámara Argentina de Internet (CABASE) · Manuel Alberti", "name": "Cabase NGB", "description": "Cámara Argentina de Internet (CABASE) · Manuel Alberti", "url": "https://ixp.cabase.org.ar"}, {"lat": 39.137, "lon": -94.578, "value": 77.1, "count": 1, "label": "1530 SWIFT - NOCIX · NOCIX, LLC · North Kansas City", "name": "1530 SWIFT - NOCIX", "description": "NOCIX, LLC · North Kansas City", "url": "http://www.1530swift.com"}, {"lat": 39.101, "lon": -94.581, "value": 67.4, "count": 1, "label": "Netrality Kansas City - 1102 Grand · Netrality Data Centers · Kansas City", "name": "Netrality Kansas City - 1102 Grand", "description": "Netrality Data Centers · Kansas City", "url": "https://netrality.com/data-center/1102-grand-kansas-city/"}, {"lat": 39.137, "lon": -94.579, "value": 44.1, "count": 1, "label": "NOCIX Clay Facility · NOCIX, LLC · North Kansas City", "name": "NOCIX Clay Facility", "description": "NOCIX, LLC · North Kansas City", "url": "http://www.nocix.com"}, {"lat": 39.101, "lon": -94.582, "value": 41.3, "count": 1, "label": "Level(3) Kansas City · Lumen Technologies Inc · Kansas City", "name": "Level(3) Kansas City", "description": "Lumen Technologies Inc · Kansas City", "url": "http://www.level3.com"}, {"lat": 39.097, "lon": -94.567, "value": 31.7, "count": 1, "label": "Patmos KC1 · Patmos Hosting, INC · Kansas City", "name": "Patmos KC1", "description": "Patmos Hosting, INC · Kansas City", "url": "https://patmos.tech"}, {"lat": 39.159, "lon": -94.471, "value": 31.7, "count": 1, "label": "LightEdge Kansas City Subtropolis (KCI1) · LightEdge Solutions · Kansas City", "name": "LightEdge Kansas City Subtropolis (KCI1)", "description": "LightEdge Solutions · Kansas City", "url": "http://www.lightedge.com/"}, {"lat": 39.011, "lon": -94.501, "value": 16.8, "count": 1, "label": "Iron Mountain Data Center - Kansas City (KCM-1) · Iron Mountain Data Centers · Kansas City", "name": "Iron Mountain Data Center - Kansas City (KCM-1)", "description": "Iron Mountain Data Centers · Kansas City", "url": "https://www.ironmountain.com/digital-transformation/data-centers/locations/kansas-city-data-center"}, {"lat": 39.101, "lon": -94.579, "value": 10.6, "count": 1, "label": "NetSolus Inc · NetSolus Inc. · Kansas City", "name": "NetSolus Inc", "description": "NetSolus Inc. · Kansas City", "url": "http://www.netsolus.com"},